name,state,address,phone,type,lat,lon,photo,opening_event,
Aix-en-Provence,Provence-Alpes-Côte d'Azur,,,office,43.529742,5.447427,,https://www.facebook.com/groups/752419575099262/,
Agen,Nouvelle-Aquitaine,,,office,44.2015624,0.6176324,,https://www.facebook.com/groups/442770619582769/,
Ajaccio,Corse,,,office,41.919229,8.738635,,https://www.facebook.com/groups/340992776659275/,
Albi,Tarn,,,office,43.9250853,2.1486413,,https://www.facebook.com/groups/568512636941667/,
Amiens,Hauts-de-France,,,office,49.894067,2.295753,,https://www.facebook.com/groups/532539170538018/,
Angoulême,Nouvelle-Aquitaine,,,office,45.648377,0.1562369,,https://www.facebook.com/groups/1949599095083984/,
Annecy,,,,office,45.899247,6.129384,,https://www.facebook.com/groups/2117664198255333,
Arles,,,,office,43.676647,4.6277769,,https://www.facebook.com/groups/2375359032490622/,
Arras,,,,office,50.291002,2.777535,,https://www.facebook.com/groups/562641887498190,
Aubenas,Auvergne-Rhône-Alpes,,,office,44.620909,4.389863,,https://www.facebook.com/groups/716116728721202/,
Angers,Pays de la Loire,,,office,47.4711616,-0.5518257,,https://www.facebook.com/groups/246118979440048/,
Antibes,,,,office,43.580418,7.125102,,https://www.facebook.com/groups/1116562681834344/,
Auxerre,,,,office,47.798202,3.573781,,https://www.facebook.com/groups/1939139509495940/,
Avignon,Provence-Alpes-Côte d'Azur,,,office,43.949317,4.805528,,https://www.facebook.com/groups/343399629734843/,
Bayonne,,,,office,40.6687141,-74.1143091,,https://www.facebook.com/groups/435056820232214/,
Belfort,,,,office,39.0002934,-77.4318392,,https://www.facebook.com/groups/302615960467770/,
Belley,,,,office,45.76096,5.686346,,https://www.facebook.com/groups/470852206760706/,
Bergerac,,,,office,37.7714444,-122.4137329,,https://www.facebook.com/groups/1673503329446157/,
Besancon,,,,office,47.237829,6.0240539,,https://www.facebook.com/groups/1693163844127768/,
Blois,,,,office,47.5860921,1.3359475,,https://www.facebook.com/groups/478284922657590/,
Bordeaux,Nouvelle-Aquitaine,,,office,44.837789,-0.57918,,https://www.facebook.com/groups/225233498347115/,
Bourges,,,,office,47.081012,2.398782,,https://www.facebook.com/groups/1492453120899089/,
Bourg en Bresse,,,,office,46.2051675,5.2255007,,https://www.facebook.com/groups/274506313182132/,
Brest,Bretagne,,,office,48.390394,-4.486076,,https://www.facebook.com/groups/446505255845901/,
Caen,Normandie,,,office,49.182863,-0.370679,,https://www.facebook.com/groups/560205461085647/,
Cergy,Île-de-France,,,office,49.035617,2.060325,,https://www.facebook.com/groups/921518711371592/,
Chambery,,,,office,45.564601,5.917781,,https://www.facebook.com/groups/1331706390304883/,
Châlons sur saone,,,,office,46.780764,4.853947,,https://www.facebook.com/groups/2114424548821686/,
Charleville-Mezieres,,,,office,49.762085,4.726096,,https://www.facebook.com/groups/649308522136972/,
Chartres,,,,office,48.443854,1.489012,,https://www.facebook.com/groups/523779754752532/,
chateauroux,,,,office,46.811434,1.686779,,https://www.facebook.com/groups/1983159218389164/,
Cherbourg,,,,office,49.6337308,-1.622137,,https://www.facebook.com/groups/314198069390728,
Clermont-Ferrand,Auvergne-Rhône-Alpes,,,office,45.777222,3.087025,,https://www.facebook.com/groups/475770939609031/,
Concarneau,,,,office,47.872834,-3.920734,,https://www.facebook.com/groups/484015462107245/,
Dijon,,,,office,47.322047,5.04148,,https://www.facebook.com/groups/Groupe.CItoyen.Dijon.Marche.Pour.Le.Climat/,
Epinal,,,,office,48.172402,6.449403,,https://www.facebook.com/groups/927990110730312/,
grasse,,,,office,43.660153,6.926492,,https://www.facebook.com/groups/1049975788498392/,
Grenoble,Auvergne-Rhône-Alpes,,,office,45.188529,5.724524,,https://www.facebook.com/groups/326304297943465/,
La lozere,,,,office,44.494203,3.5812692,,https://www.facebook.com/groups/2333629980000234/,
La Roche sur Yon,,,,office,46.670511,-1.426442,,https://www.facebook.com/groups/553868841710620/,
La Rochelle,France,,,office,46.160329,-1.151139,,https://www.facebook.com/groups/165604677687094/,
Le Havre,,,,office,49.49437,0.107929,,https://www.facebook.com/groups/682066348839013/,
Le Mans,,,,office,48.00611,0.199556,,https://www.facebook.com/groups/244485502900068/,
Lille,Hauts-de-France,,,office,50.62925,3.057256,,https://www.facebook.com/groups/1102657336565121/,
Ensemble pour le climat,Hauts-de-France,,,office,50.1014,3.91254,,https://www.facebook.com/ensemblepourleclimat.hdf/,
Limoges,,,,office,45.833619,1.261105,,https://www.facebook.com/groups/355618878513609/,
Lons Le Saulnier,,,,office,46.671361,5.550796,,https://www.facebook.com/groups/541532316304855/,
Lyon,Auvergne-Rhône-Alpes,,,office,45.764043,4.835659,,https://www.facebook.com/groups/2162148954111090/,
Marseille,Provence-Alpes-Côte d'Azur,,,office,43.296482,5.36978,,https://www.facebook.com/groups/257445308243268/,
Melun,,,,office,48.542105,2.6554,,https://www.facebook.com/groups/320893728721905/,
Metz,Grand-Est,,,office,49.1193089,6.1757156,,https://www.facebook.com/groups/metzmarchepourleclimat/,
Montbeliard,,,,office,47.510356,6.798466,,https://www.facebook.com/groups/925004984352728/,
Montelimar,,,,office,44.556944,4.749496,,https://www.facebook.com/groups/717347305290318/,
Montpellier,Occitanie,,,office,43.610769,3.876716,,https://www.facebook.com/groups/333157034094570/,
Morlaix,,,,office,48.577613,-3.828228,,https://www.facebook.com/groups/296650937597577/,
Moulins,,,,office,46.568059,3.334417,,https://www.facebook.com/groups/2120866941575984/,
Mulhouse,,,,office,47.750839,7.335888,,https://www.facebook.com/groups/321931061718753/,
Nancy,,,,office,37.09024,-95.712891,,https://www.facebook.com/groups/1380174345446007/,
Nantes,Pays de la Loire,,,office,47.218371,-1.553621,,https://www.facebook.com/groups/2535939826675715/,
Nantes,Pays de la Loire,,,office,47.218371,-1.553621,,https://www.facebook.com/nonaturenofuture/,
Nice,Provence-Alpes-Côte d'Azur,,,office,39.1232253,-122.848327,,https://www.facebook.com/groups/2191572187725963/,
Nîmes,,,,office,43.836699,4.360054,,https://www.facebook.com/groups/ilestencoretempsnimes/,
Niort,,,,office,46.323716,-0.464777,,https://www.facebook.com/groups/187207518836029/,
Oise,,,,office,43.667979,-79.3983677,,https://www.facebook.com/groups/2343161679045009/,
CPLC Paris,Île-de-France,,,office,48.8864392,2.2648041,,https://www.facebook.com/groups/1971032459585138/,
Boycott Ctioyen,Île-de-France,,,office,48.8864392,2.2648041,,https://www.facebook.com/boycottcitoyen/,
UPLC France,France,,,office,46.227638,2.213749,,https://www.facebook.com/groups/282323685828662/,
Pau,Nouvelle-Aquitaine,,,office,43.2951,-0.370797,,https://www.facebook.com/groups/1893141780777459/,
Périgueux,,,,office,45.184029,0.7211149,,https://www.facebook.com/groups/171307823759444/,
Perpignan,,,,office,42.6886591,2.8948332,,https://www.facebook.com/groups/168738707368539/,
Poitiers,,,,office,46.580224,0.340375,,https://www.facebook.com/groups/955005834699731/,
Pontarlier,,,,office,46.9041039,6.354242,,https://www.facebook.com/groups/1587187644761201/,
Reims,Grand-Est,,,office,49.258329,4.031696,,https://www.facebook.com/groups/556380481460070/,
Rennes,Bretagne,,,office,48.117266,-1.6777926,,https://www.facebook.com/groups/284293252174812/,
Roanne,,,,office,46.034432,4.072695,,https://www.facebook.com/groups/693708357651765/,
Rouen,Normandie,,,office,49.443232,1.099971,,https://www.facebook.com/groups/271172083511190/,
Saint-Brieuc,Bretagne,,,office,48.51418,-2.765835,,https://www.facebook.com/groups/327948451105499/,
Saint Chaptes,,,,office,43.970446,4.278316,,https://www.facebook.com/groups/1773362836124174,
Saint Claude,,,,office,46.387405,5.8677659,,https://www.facebook.com/groups/406996659835767/,
Saint Etienne,,,,office,45.439695,4.3871779,,https://www.facebook.com/groups/2170379969703832/,
Saint-Malo,Bretagne,,,office,48.649337,-2.025674,,https://www.facebook.com/groups/237189250288743/,
Saint-Avold,,,,office,49.104408,6.705793,,https://www.facebook.com/groups/283400955613132/,
Saint Quentin en Yvelines,,,,office,48.7700557,2.0249544,,https://www.facebook.com/groups/2121948941456507/,
Saintes,,,,office,45.744175,-0.633389,,https://www.facebook.com/groups/1893290617425388/,
Senlis,,,,office,49.205164,2.583212,,https://www.facebook.com/groups/2343161679045009/,
Strasbourg,Grand-Est,,,office,48.5734053,7.7521113,,https://www.facebook.com/groups/334921663749448/,
Suresnes,France,,,office,48.869798,2.219033,,https://www.facebook.com/groups/2189024751167774/,
Toulon,,,,office,43.124228,5.928,,https://www.facebook.com/groups/267519697231051/,
Toulouse,Occitanie,,,office,43.604652,1.444209,,https://www.facebook.com/groups/302720110320038/,
Tours,Centre,,,office,47.394144,0.68484,,https://www.facebook.com/groups/326649817910562/,
Uzes Pont du Gard,,,,office,44.0022324,4.4161714,,https://www.facebook.com/groups/ilestencoretempsuzes/,
Versailles,Île-de-France,,,office,48.8048649,2.1203554,,https://www.facebook.com/groups/475631972942937/,
Valence,,,,office,47.9237775,-122.2547372,,https://www.facebook.com/groups/705006886532676/,
Vannes,France,,,office,47.658236,-2.760847,,https://www.facebook.com/groups/267332117450935/,
Basse-Terre,"Guadeloupe, France",,,office,16.0144526,-61.7064109,,https://www.facebook.com/groups/1605426089756953,
La Réunion,,,,office,-21.115141,55.536384,,https://www.facebook.com/groups/359957054744244/,
Martinique,,,,office,14.641528,-61.024174,,https://www.facebook.com/groups/1833814846733076,
Nouméa,,,,office,-22.2710727,166.4416459,,https://www.facebook.com/groups/2161482974170655/,
Saint Martin,,,,office,18.0708298,-63.0500809,,https://www.facebook.com/groups/673132183071161/,
Germany,Germany,,,office,51.165691,10.451526,,https://www.facebook.com/groups/179123786323054/,
England,England,,,office,52.3555177,-1.1743197,,https://www.facebook.com/groups/251666512141446/,
Benin,Benin,,,office,9.30769,2.315834,,https://www.facebook.com/groups/247125839290199/,
Brazil,Brazil,,,office,-10.3333333,-53.2,,https://www.facebook.com/groups/283927015574807/,
Brussels,Brussels,,,office,50.8503463,4.3517211,,https://www.facebook.com/groups/497371787340588/,
Colombia,Colombia,,,office,4.570868,-74.297333,,https://www.facebook.com/groups/308507883070016/,
Congo,Congo,,,office,-4.038333,21.758664,,https://www.facebook.com/groups/2189528447928050/,
Edimbourg,Scotland,,,office,55.953252,-3.188267,,https://www.facebook.com/groups/500593237017291/,
Egypt,Egypt,,,office,26.820553,30.802498,,https://www.facebook.com/groups/351005268978701/,
Spain,Spain,,,office,39.3262345,-4.8380649,,https://www.facebook.com/groups/250897315574289/,
Geneva,Geneva,,,office,46.2043907,6.1431577,,https://www.facebook.com/groups/301505104005314/,
Hawai,Hawai,,,office,19.8967662,-155.5827818,,https://www.facebook.com/groups/1139354206214239/,
India,India,,,office,20.593684,78.96288,,https://www.facebook.com/groups/347706145773994/,
Italy,Italy,,,office,41.87194,12.56738,,https://www.facebook.com/groups/892791074441921/,
Japan,Japan,,,office,36.204824,138.252924,,https://www.facebook.com/groups/381680969040186/,
Luxembourg,Luxembourg,,,office,49.8158683,6.1296751,,https://www.facebook.com/groups/riseforclimate/,
Malta,Malta,,,office,35.937496,14.375416,,https://www.facebook.com/groups/2207851109453260/,
Montevideo,Montevideo,,,office,-34.9011127,-56.1645314,,https://www.facebook.com/groups/808475106151025/,
Montreal,Montreal,,,office,45.5016889,-73.567256,,https://www.facebook.com/groups/471639389998244/,
Neuchatel,Switzerland,,,office,46.9899874,6.9292732,,https://www.facebook.com/groups/2109185405997629/,
New York,New York,,,office,40.7127753,-74.0059728,,https://www.facebook.com/groups/1047733075381644/,
Peru,Peru,,,office,-9.189967,-75.015152,,https://www.facebook.com/groups/2164401950548513/,
Sweden,Sweden,,,office,60.128161,18.643501,,https://www.facebook.com/groups/175871256691476/,
Togo Republic,Togo Republic,,,office,8.619543,0.824782,,https://www.facebook.com/groups/2102654166730603/,
Vietnam,Vietnam,,,office,14.058324,108.277199,,https://www.facebook.com/groups/1916045161822017/,
Tahiti,Tahiti,,,office,-17.6509195,-149.4260421,,https://www.facebook.com/groups/2205809513030838/,
USA,USA,,,office,37.09024,-95.712891,,https://www.facebook.com/groups/257227268275967/,
Klimatinspiratör Klimataktion,Sweden,,,office,60.709149,14.896603,,https://www.facebook.com/groups/929294497203110/,
Fridayforfuture Stockholm,,"Stockholm Stockholms län, Sverige",,office,59.3293235,18.0685808,,https://www.facebook.com/groups/929294497203110/,
Fridayforfuture Luleå,,"Luleå Norrbottens län, Sverige",,office,65.5831,22.146,,https://www.facebook.com/groups/929294497203110/,
Fridayforfuture Umeå,,"Umeå Västerbottens län, Sverige",,office,63.8257,20.2631,,https://www.facebook.com/groups/929294497203110/,
Fridayforfuture Falun,,"Falu kommun Dalarnas län, Sverige",,office,60.607,15.6323,,https://www.facebook.com/groups/929294497203110/,
Fridayforfuture Uppsala,,"Uppsala Uppsala län, Sverige",,office,59.8594,17.6411,,https://www.facebook.com/groups/929294497203110/,
Fridayforfuture Örebro,,"Örebro Örebro län, Sverige",,office,59.2747,15.215,,https://www.facebook.com/groups/929294497203110/,
Fridayforfuture Göteborg,,"Göteborg  Västra Götalands län, Sverige",,office,57.7072,11.967,,https://www.facebook.com/groups/929294497203110/,
Fridayforfuture Vimmerby,,"Vimmerby Kalmar län, Sverige",,office,57.6653,15.8563,,https://www.facebook.com/groups/929294497203110/,
Fridayforfuture Visby,,"Visby Gotlands län, Sverige",,office,57.6379,18.298,,https://www.facebook.com/groups/929294497203110/,
Fridayforfuture Kalmar,,"Kalmar Kalmar län, Sverige",,office,56.6629,16.3662,,https://www.facebook.com/groups/929294497203110/,
Fridayforfuture Karlstad,,"Karlstad Värmlands län, Sverige",,office,59.3799,13.5029,,https://www.facebook.com/groups/929294497203110/,
Fridayforfuture Malmö,,"Malmö Skåne län, Sverige",,office,55.6053,13.0002,,https://www.facebook.com/groups/929294497203110/,
Fridayforfuture Halmstad,,"Halmstad Hallands län, Sverige",,office,56.674,12.8575,,https://www.facebook.com/groups/929294497203110/,
Fridayforfuture Östersund,,"Östersund Jämtlands län, Sverige",,office,63.1794,14.6357,,https://www.facebook.com/groups/929294497203110/,
Fridayforfuture Västervik,,"Västervik Kalmar län, Sverige",,office,57.7594,16.6385,,https://www.facebook.com/groups/929294497203110/,
Fridayforfuture Nyköping,,"Nyköping Södermanlands län, Sverige",,office,58.7545,17.0118,,https://www.facebook.com/groups/929294497203110/,
Fridayforfuture Ånge,,"Ånge kommun Västernorrlands län, Sverige",,office,62.5243,15.6604,,https://www.facebook.com/groups/929294497203110/,
Fridayforfuture Borås,,"Borås Västra Götalands län, Sverige",,office,57.7211,12.9407,,https://www.facebook.com/groups/929294497203110/,
Fridayforfuture Ekerö,,"Ekerö kommun Stockholms län, Sverige",,office,59.2905,17.8131,,https://www.facebook.com/groups/929294497203110/,
Fridayforfuture Sundsvall,,"Sundsvalls kommun Västernorrlands län, Sverige",,office,62.3908,17.3071,,https://www.facebook.com/groups/929294497203110/,
Fridayforfuture Norrköping,,"Norrköping Östergötlands län, Sverige",,office,58.5909,16.1904,,https://www.facebook.com/groups/929294497203110/,
Fridayforfuture Alingsås,,"Alingsås Västra Götalands län, Sverige",,office,57.93,12.533,,https://www.facebook.com/groups/929294497203110/,
Fridayforfuture Nykvarn,,"Nykvarn Stockholms län, Sverige",,office,59.1772,17.4312,,https://www.facebook.com/groups/929294497203110/,
Fridayforfuture Aneby,,"Aneby kommun Jönköpings län, Sverige",,office,57.8381,14.8101,,https://www.facebook.com/groups/929294497203110/,
Fridayforfuture Linköping,,"Linköping Östergötlands län, Sverige",,office,58.4098,15.6245,,https://www.facebook.com/groups/929294497203110/,
Fridayforfuture Katrineholm,,"Katrineholm Södermanlands län, Sverige",,office,58.996,16.2068,,https://www.facebook.com/groups/929294497203110/,
Fridayforfuture Trollhättan,,"Trollhättan Västra Götalands län, Sverige",,office,58.2828,12.2909,,https://www.facebook.com/groups/929294497203110/,
Fridayforfuture Gävle,,"Gävle Gävleborgs län, Sverige",,office,60.675,17.1467,,https://www.facebook.com/groups/929294497203110/,
Fridayforfuture Mora,,"Mora Dalarnas län, Sverige",,office,61.0082,14.5431,,https://www.facebook.com/groups/929294497203110/,
Fridayforfuture Södertälje,,"Södertälje Stockholms län, Sverige",,office,59.1964,17.6272,,https://www.facebook.com/groups/929294497203110/,
Fridayforfuture Akalla,,"Akalla Stockholms län, Sverige",,office,59.4147,17.9218,,https://www.facebook.com/groups/929294497203110/,
Fridayforfuture Lund,,"Lund Skåne län, Sverige",,office,55.7029,13.1929,,https://www.facebook.com/groups/929294497203110/,
Fridayforfuture Västerås,,"Västerås Västmanlands län, Sverige",,office,59.6111,16.5464,,https://www.facebook.com/groups/929294497203110/,
Fridayforfuture Järfälla,,"Järfälla Stockholms län, Sverige",,office,59.4205,17.8285,,https://www.facebook.com/groups/929294497203110/,
Fridayforfuture Sigtuna,,"Sigtuna Stockholms län, Sverige",,office,59.6165,17.7236,,https://www.facebook.com/groups/929294497203110/,
Fridayforfuture Åkersberga,Österåker,,"Åkersberga Stockholms län, Sverige",,office,59.4824,18.2944,,https://www.facebook.com/groups/929294497203110/
Fridayforfuture Nacka,,"Nacka kommun Stockholms län, Sverige",,office,59.3099,18.1677,,https://www.facebook.com/groups/929294497203110/,
Fridayforfuture Norrtälje,,"Norrtälje Stockholms län, Sverige",,office,59.7592,18.7037,,https://www.facebook.com/groups/929294497203110/,
Fridayforfuture Upplands-Bro,,"Upplands-Bro kommun Stockholms län, Sverige",,office,59.5262,17.6517,,https://www.facebook.com/groups/929294497203110/,
Fridayforfuture Säffle,,"Säffle Värmlands län, Sverige",,office,59.1329,12.9249,,https://www.facebook.com/groups/929294497203110/,
Fridayforfuture Skövde,,"Skövde Västra Götalands län, Sverige",,office,58.3898,13.8444,,https://www.facebook.com/groups/929294497203110/,
Fridayforfuture Orsa,,"Orsa Dalarnas län, Sverige",,office,61.1201,14.6223,,https://www.facebook.com/groups/929294497203110/,
Fridayforfuture Vännäs,,"Vännäs kommun Västerbottens län, Sverige",,office,63.9059,19.7513,,https://www.facebook.com/groups/929294497203110/,
Fridayforfuture Nora,,"Nora Örebro län, Sverige",,office,59.5187,15.0388,,https://www.facebook.com/groups/929294497203110/,
Fridayforfuture Falköping,,"Falköping Västra Götalands län, Sverige",,office,58.1703,13.5552,,https://www.facebook.com/groups/929294497203110/,
Fridayforfuture Hudiksvall,,"Hudiksvall Gävleborgs län, Sverige",,office,61.7283,17.1047,,https://www.facebook.com/groups/929294497203110/,
Fridayforfuture Bollnäs,,"Bollnäs Gävleborgs län, Sverige",,office,61.3513,16.3972,,https://www.facebook.com/groups/929294497203110/,
Fridayforfuture Bollebygd,,"Bollebygds kommun Västra Götalands län, Sverige",,office,57.6689,12.5707,,https://www.facebook.com/groups/929294497203110/,
Fridayforfuture Lidingö,,"Lidingö Stockholms län, Sverige",,office,59.3644,18.1331,,https://www.facebook.com/groups/929294497203110/,
Fridayforfuture Kungälv,,"Kungälv Västra Götalands län, Sverige",,office,57.8708,11.9789,,https://www.facebook.com/groups/929294497203110/,
Fridayforfuture Gislaved,,"Gislaveds kommun Jönköpings län, Sverige",,office,57.302,13.5392,,https://www.facebook.com/groups/929294497203110/,
Fridayforfuture Skellefteå,,"Skellefteå kommun Västerbottens län, Sverige",,office,64.752,20.9593,,https://www.facebook.com/groups/929294497203110/,
Fridayforfuture Karlskoga,,"Karlskoga Örebro län, Sverige",,office,59.3292,14.5177,,https://www.facebook.com/groups/929294497203110/,
Fridayforfuture Ängelholm,,"Ängelholm Skåne län, Sverige",,office,56.2429,12.8619,,https://www.facebook.com/groups/929294497203110/,
Fridayforfuture Kristianstad,,"Kristianstad Skåne län, Sverige",,office,56.0294,14.1567,,https://www.facebook.com/groups/929294497203110/,
Fridayforfuture Robertsfors,,"Robertsfors kommun Västerbottens län, Sverige",,office,64.1933,20.8543,,https://www.facebook.com/groups/929294497203110/,
Fridayforfuture Enköping,,"Enköping Uppsala län, Sverige",,office,59.6356,17.0779,,https://www.facebook.com/groups/929294497203110/,
Fridayforfuture Boden,,"Boden Norrbottens län, Sverige",,office,65.8275,21.6964,,https://www.facebook.com/groups/929294497203110/,
Fridayforfuture Örnsköldsvik,,"Örnsköldsvik Västernorrlands län, Sverige",,office,63.2889,18.716,,https://www.facebook.com/groups/929294497203110/,
Fridayforfuture Salem,,"Salem Stockholms län, Sverige",,office,59.2019,17.7647,,https://www.facebook.com/groups/929294497203110/,
Fridayforfuture Hallsberg,,"Hallsberg Örebro län, Sverige",,office,59.066,15.1089,,https://www.facebook.com/groups/929294497203110/,
Fridayforfuture Trosa,,"Trosa kommun Södermanlands län, Sverige",,office,58.8967,17.5478,,https://www.facebook.com/groups/929294497203110/,
Fridayforfuture Vallentuna,,"Vallentuna kommun Stockholms län, Sverige",,office,59.5332,18.0765,,https://www.facebook.com/groups/929294497203110/,
Fridayforfuture Solna,,"Solna kommun Stockholms län, Sverige",,office,59.3614,18.0014,,https://www.facebook.com/groups/929294497203110/,
Fridayforfuture Mullsjö,,"Mullsjö Jönköpings län, Sverige",,office,57.9168,13.8805,,https://www.facebook.com/groups/929294497203110/,
Fridayforfuture Bergsjö,,"Bergsjö Gävleborgs län, Sverige",,office,61.9838,17.0584,,https://www.facebook.com/groups/929294497203110/,
Fridayforfuture Varberg,,"Varberg Hallands län, Sverige",,office,57.1057,12.2503,,https://www.facebook.com/groups/929294497203110/,
Fridayforfuture Helsingborg,,"Helsingborg Skåne län, Sverige",,office,56.0442,12.7041,,https://www.facebook.com/groups/929294497203110/,
Fridayforfuture Gnesta,,"Gnesta kommun Södermanlands län, Sverige",,office,59.0454,17.309,,https://www.facebook.com/groups/929294497203110/,
Fridayforfuture Simrishamn,,"Simrishamn Skåne län, Sverige",,office,55.5566,14.35,,https://www.facebook.com/groups/929294497203110/,
Fridayforfuture Huddinge,,"Huddinge kommun  Stockholms län, Sverige",,office,59.2294,17.9749,,https://www.facebook.com/groups/929294497203110/,
Fridayforfuture Falkenberg,,"Falkenberg Hallands län, Sverige",,office,56.9046,12.4919,,https://www.facebook.com/groups/929294497203110/,
Fridayforfuture Söderhamn,,"Söderhamn Gävleborgs län, Sverige",,office,61.2999,17.0608,,https://www.facebook.com/groups/929294497203110/,
Fridayforfuture Bovallstrand,,"Bovallstrand Västra Götalands län, Sverige",,office,58.4747,11.3188,,https://www.facebook.com/groups/929294497203110/,
Fridayforfuture Vetlanda,,"Vetlanda Jönköpings län, Sverige",,office,57.426,15.087,,https://www.facebook.com/groups/929294497203110/,
Fridayforfuture Mariestad,,"Mariestad Västra Götalands län, Sverige",,office,58.7093,13.8229,,https://www.facebook.com/groups/929294497203110/,
Fridayforfuture Bräcke,,"Bräcke kommun Jämtlands län, Sverige",,office,62.7521,15.4199,,https://www.facebook.com/groups/929294497203110/,
Fridayforfuture Lycksele,,"Lycksele kommun Västerbottens län, Sverige",,office,64.5959,18.6778,,https://www.facebook.com/groups/929294497203110/,
Fridayforfuture Skurup,,"Skurups kommun Skåne län, Sverige",,office,55.4839,13.5015,,https://www.facebook.com/groups/929294497203110/,
Fridayforfuture Eskilstuna,,"Eskilstuna Södermanlands län, Sverige",,office,59.3717,16.5051,,https://www.facebook.com/groups/929294497203110/,
Fridayforfuture Lidköping,,"Lidköping Västra Götalands län, Sverige",,office,58.5037,13.1576,,https://www.facebook.com/groups/929294497203110/,
Fridayforfuture Jönköping,,"Jönköpings kommun Jönköpings län, Sverige",,office,57.7815,14.1628,,https://www.facebook.com/groups/929294497203110/,
Fridayforfuture Sollefteå,,"Sollefteå Västernorrlands län, Sverige",,office,63.168,17.2654,,https://www.facebook.com/groups/929294497203110/,
Fridayforfuture Håbo,,"Habo Jönköpings län, Sverige",,office,57.9092,14.0744,,https://www.facebook.com/groups/929294497203110/,
Fridayforfuture Arboga,,"Arboga kommun Västmanlands län, Sverige",,office,59.3942,15.8397,,https://www.facebook.com/groups/929294497203110/,
Fridayforfuture Svalöv,,"Svalövs kommun Skåne län, Sverige",,office,55.9137,13.107,,https://www.facebook.com/groups/929294497203110/,
Fridayforfuture Arvika,,"Arvika Värmlands län, Sverige",,office,59.6544,12.5916,,https://www.facebook.com/groups/929294497203110/,
Fridayforfuture Sundbyberg,,"Sundbybergs kommun Stockholms län, Sverige",,office,59.3629,17.9681,,https://www.facebook.com/groups/929294497203110/,
Fridayforfuture Jokkmokk,,"Jokkmokk Norrbottens län, Sverige",,office,66.6059,19.8379,,https://www.facebook.com/groups/929294497203110/,
Fridayforfuture Sävsjö,,"Sävsjö kommun Jönköpings län, Sverige",,office,57.4021,14.6667,,https://www.facebook.com/groups/929294497203110/,
Fridayforfuture Ystad,,"Ystad Skåne län, Sverige",,office,55.433,13.8197,,https://www.facebook.com/groups/929294497203110/,
Fridayforfuture Kramfors,,"Kramfors Västernorrlands län, Sverige",,office,62.9306,17.784,,https://www.facebook.com/groups/929294497203110/,
Fridayforfuture Tanumshede,,"Tanumshede Västra Götalands län, Sverige",,office,58.7219,11.3324,,https://www.facebook.com/groups/929294497203110/,
Fridayforfuture Munkedal,,"Munkedal Västra Götalands län, Sverige",,office,58.4666,11.6734,,https://www.facebook.com/groups/929294497203110/,
Fridayforfuture Tomelilla,,"Tomelilla kommun Skåne län, Sverige",,office,55.5438,13.9541,,https://www.facebook.com/groups/929294497203110/,
Fridayforfuture Tidaholm,,"Tidaholm Västra Götalands län, Sverige",,office,58.1804,13.9597,,https://www.facebook.com/groups/929294497203110/,
Fridayforfuture Lysekil,,"Lysekil Västra Götalands län, Sverige",,office,58.2768,11.4434,,https://www.facebook.com/groups/929294497203110/,
Fridayforfuture Hjo,,"Hjo Västra Götalands län, Sverige",,office,58.3013,14.2879,,https://www.facebook.com/groups/929294497203110/,
Fridayforfuture Åsele,,"Åsele kommun Västerbottens län, Sverige",,office,64.1604,17.3558,,https://www.facebook.com/groups/929294497203110/,
Fridayforfuture Lindesberg,,"Lindesberg Örebro län, Sverige",,office,59.5931,15.2265,,https://www.facebook.com/groups/929294497203110/,
Big School Walk-out for Climate Action - Australia,Australia,Australia,,office,-25.274398,133.775136,,https://www.facebook.com/groups/1933369976972843/,
Collectif Citoyen pour le Climat #IlEstEncoreTemps - Lorient,France,lorient,,office,47.7482524,-3.3702449,,https://www.facebook.com/groups/1958177647576434/,
Action Climat Sens,France,Sens,,office,48.20065,3.28268,,https://climatenvironnementsens.wordpress.com,
Citoyens pour le Climat Brest,France,Brest,,office,48.390394,-4.486076,,https://www.facebook.com/groups/446505255845901/,
Citoyen pour le climat Chablais,France,Thonon-les-Bains,,office,46.373565,6.477635,,https://www.facebook.com/groups/1065393603620334/,
Vencois-es pour le climat,France,Vence,,office,43.7223216,7.1117033,,https://www.facebook.com/Vencois.es.pour.le.climat/,
Collectif Urgence Climat Landes,France,DAX,,office,43.708608,-1.051945,,https://www.facebook.com/UrgenceClimatLandes/,
Citoyens pour le climat Guyane #citizensforclimate,Guyane,,,office,4.92242,-52.3134531,,https://www.facebook.com/Citoyens-pour-le-climat-Guyane-citizensforclimate-271471246862745/,
GNO Non Merci,Strasbourg,,,office,48.5734053,7.7521113,,https://gcononmerci.org/,
Zad du Moulin,Kolbsheim,,,office,48.561318,7.592415,,http://zaddumoulin.fr/,