window.EVENT_DATA ={
   "results":[


 {
   "name": "Plastic attacks - Agen",
   "location": "Agen",
   "url": "https://docs.google.com/forms/d/e/1FAIpQLSe-0WQWlUntqC2JjWgdRXEh9yiWQ8LyMjjTsTiZ2etWqeinvg/viewform?usp=sf_link",
   "latitude": "44.203142",
   "longitude": " 0.616363",
   "event_type_name": "Plastic attacks",
   "start_time": "",
   "start_dt": "2019-24-05",
   "capacity": "",
   "id": "",
   "start_day": "",
   "venue_zip": "",
   "is_official": "1",
   "id_obfuscated": "gpg5bt"
 },
 {
   "name": "Plastic attacks - Aix En Provence",
   "location": "Aix En Provence",
   "url": "https://docs.google.com/forms/d/e/1FAIpQLSe-0WQWlUntqC2JjWgdRXEh9yiWQ8LyMjjTsTiZ2etWqeinvg/viewform?usp=sf_link",
   "latitude": "43.529742",
   "longitude": " 5.447426999999999",
   "event_type_name": "Plastic attacks",
   "start_time": "",
   "start_dt": "2019-24-05",
   "capacity": "",
   "id": "",
   "start_day": "",
   "venue_zip": "",
   "is_official": "1",
   "id_obfuscated": "gpg5bt"
 },
 {
   "name": "Plastic attacks - Albertville",
   "location": "Albertville",
   "url": "https://docs.google.com/forms/d/e/1FAIpQLSe-0WQWlUntqC2JjWgdRXEh9yiWQ8LyMjjTsTiZ2etWqeinvg/viewform?usp=sf_link",
   "latitude": "45.675535",
   "longitude": " 6.392726",
   "event_type_name": "Plastic attacks",
   "start_time": "",
   "start_dt": "2019-24-05",
   "capacity": "",
   "id": "",
   "start_day": "",
   "venue_zip": "",
   "is_official": "1",
   "id_obfuscated": "gpg5bt"
 },
 {
   "name": "Plastic attacks - Albi ",
   "location": "Albi ",
   "url": "https://docs.google.com/forms/d/e/1FAIpQLSe-0WQWlUntqC2JjWgdRXEh9yiWQ8LyMjjTsTiZ2etWqeinvg/viewform?usp=sf_link",
   "latitude": "43.9250853",
   "longitude": " 2.1486413",
   "event_type_name": "Plastic attacks",
   "start_time": "",
   "start_dt": "2019-24-05",
   "capacity": "",
   "id": "",
   "start_day": "",
   "venue_zip": "",
   "is_official": "1",
   "id_obfuscated": "gpg5bt"
 },
 {
   "name": "Plastic attacks - Alès",
   "location": "Alès",
   "url": "https://docs.google.com/forms/d/e/1FAIpQLSe-0WQWlUntqC2JjWgdRXEh9yiWQ8LyMjjTsTiZ2etWqeinvg/viewform?usp=sf_link",
   "latitude": "44.127204",
   "longitude": " 4.083352",
   "event_type_name": "Plastic attacks",
   "start_time": "",
   "start_dt": "2019-24-05",
   "capacity": "",
   "id": "",
   "start_day": "",
   "venue_zip": "",
   "is_official": "1",
   "id_obfuscated": "gpg5bt"
 },
 {
   "name": "Plastic attacks - Allemagne",
   "location": "Allemagne",
   "url": "https://docs.google.com/forms/d/e/1FAIpQLSe-0WQWlUntqC2JjWgdRXEh9yiWQ8LyMjjTsTiZ2etWqeinvg/viewform?usp=sf_link",
   "latitude": "48.89322869999999",
   "longitude": " 2.3190975",
   "event_type_name": "Plastic attacks",
   "start_time": "",
   "start_dt": "2019-24-05",
   "capacity": "",
   "id": "",
   "start_day": "",
   "venue_zip": "",
   "is_official": "1",
   "id_obfuscated": "gpg5bt"
 },
 {
   "name": "Plastic attacks - Amiens",
   "location": "Amiens",
   "url": "https://docs.google.com/forms/d/e/1FAIpQLSe-0WQWlUntqC2JjWgdRXEh9yiWQ8LyMjjTsTiZ2etWqeinvg/viewform?usp=sf_link",
   "latitude": "49.894067",
   "longitude": " 2.295753",
   "event_type_name": "Plastic attacks",
   "start_time": "",
   "start_dt": "2019-24-05",
   "capacity": "",
   "id": "",
   "start_day": "",
   "venue_zip": "",
   "is_official": "1",
   "id_obfuscated": "gpg5bt"
 },
 {
   "name": "Plastic attacks - Amman",
   "location": "Amman",
   "url": "https://docs.google.com/forms/d/e/1FAIpQLSe-0WQWlUntqC2JjWgdRXEh9yiWQ8LyMjjTsTiZ2etWqeinvg/viewform?usp=sf_link",
   "latitude": "31.9539294",
   "longitude": " 35.9041739",
   "event_type_name": "Plastic attacks",
   "start_time": "",
   "start_dt": "2019-24-05",
   "capacity": "",
   "id": "",
   "start_day": "",
   "venue_zip": "",
   "is_official": "1",
   "id_obfuscated": "gpg5bt"
 },
 {
   "name": "Plastic attacks - Angers",
   "location": "Angers",
   "url": "https://docs.google.com/forms/d/e/1FAIpQLSe-0WQWlUntqC2JjWgdRXEh9yiWQ8LyMjjTsTiZ2etWqeinvg/viewform?usp=sf_link",
   "latitude": "47.47116159999999",
   "longitude": " -0.5518257",
   "event_type_name": "Plastic attacks",
   "start_time": "",
   "start_dt": "2019-24-05",
   "capacity": "",
   "id": "",
   "start_day": "",
   "venue_zip": "",
   "is_official": "1",
   "id_obfuscated": "gpg5bt"
 },
 {
   "name": "Plastic attacks - Angoulême",
   "location": "Angoulême",
   "url": "https://docs.google.com/forms/d/e/1FAIpQLSe-0WQWlUntqC2JjWgdRXEh9yiWQ8LyMjjTsTiZ2etWqeinvg/viewform?usp=sf_link",
   "latitude": "45.648377",
   "longitude": " 0.1562369",
   "event_type_name": "Plastic attacks",
   "start_time": "",
   "start_dt": "2019-24-05",
   "capacity": "",
   "id": "",
   "start_day": "",
   "venue_zip": "",
   "is_official": "1",
   "id_obfuscated": "gpg5bt"
 },
 {
   "name": "Plastic attacks - Annecy",
   "location": "Annecy",
   "url": "https://docs.google.com/forms/d/e/1FAIpQLSe-0WQWlUntqC2JjWgdRXEh9yiWQ8LyMjjTsTiZ2etWqeinvg/viewform?usp=sf_link",
   "latitude": "45.899247",
   "longitude": " 6.129384",
   "event_type_name": "Plastic attacks",
   "start_time": "",
   "start_dt": "2019-24-05",
   "capacity": "",
   "id": "",
   "start_day": "",
   "venue_zip": "",
   "is_official": "1",
   "id_obfuscated": "gpg5bt"
 },
 {
   "name": "Plastic attacks - Annemasse",
   "location": "Annemasse",
   "url": "https://docs.google.com/forms/d/e/1FAIpQLSe-0WQWlUntqC2JjWgdRXEh9yiWQ8LyMjjTsTiZ2etWqeinvg/viewform?usp=sf_link",
   "latitude": "46.19325300000001",
   "longitude": " 6.234158",
   "event_type_name": "Plastic attacks",
   "start_time": "",
   "start_dt": "2019-24-05",
   "capacity": "",
   "id": "",
   "start_day": "",
   "venue_zip": "",
   "is_official": "1",
   "id_obfuscated": "gpg5bt"
 },
 {
   "name": "Plastic attacks - Annonay",
   "location": "Annonay",
   "url": "https://docs.google.com/forms/d/e/1FAIpQLSe-0WQWlUntqC2JjWgdRXEh9yiWQ8LyMjjTsTiZ2etWqeinvg/viewform?usp=sf_link",
   "latitude": "45.239403",
   "longitude": " 4.667349",
   "event_type_name": "Plastic attacks",
   "start_time": "",
   "start_dt": "2019-24-05",
   "capacity": "",
   "id": "",
   "start_day": "",
   "venue_zip": "",
   "is_official": "1",
   "id_obfuscated": "gpg5bt"
 },
 {
   "name": "Plastic attacks - Antony ",
   "location": "Antony ",
   "url": "https://docs.google.com/forms/d/e/1FAIpQLSe-0WQWlUntqC2JjWgdRXEh9yiWQ8LyMjjTsTiZ2etWqeinvg/viewform?usp=sf_link",
   "latitude": "48.759255",
   "longitude": " 2.302553",
   "event_type_name": "Plastic attacks",
   "start_time": "",
   "start_dt": "2019-24-05",
   "capacity": "",
   "id": "",
   "start_day": "",
   "venue_zip": "",
   "is_official": "1",
   "id_obfuscated": "gpg5bt"
 },
 {
   "name": "Plastic attacks - Arcachon",
   "location": "Arcachon",
   "url": "https://docs.google.com/forms/d/e/1FAIpQLSe-0WQWlUntqC2JjWgdRXEh9yiWQ8LyMjjTsTiZ2etWqeinvg/viewform?usp=sf_link",
   "latitude": "44.652297",
   "longitude": " -1.1785016",
   "event_type_name": "Plastic attacks",
   "start_time": "",
   "start_dt": "2019-24-05",
   "capacity": "",
   "id": "",
   "start_day": "",
   "venue_zip": "",
   "is_official": "1",
   "id_obfuscated": "gpg5bt"
 },
 {
   "name": "Plastic attacks - Argenteuil",
   "location": "Argenteuil",
   "url": "https://docs.google.com/forms/d/e/1FAIpQLSe-0WQWlUntqC2JjWgdRXEh9yiWQ8LyMjjTsTiZ2etWqeinvg/viewform?usp=sf_link",
   "latitude": "48.9472096",
   "longitude": " 2.2466847",
   "event_type_name": "Plastic attacks",
   "start_time": "",
   "start_dt": "2019-24-05",
   "capacity": "",
   "id": "",
   "start_day": "",
   "venue_zip": "",
   "is_official": "1",
   "id_obfuscated": "gpg5bt"
 },
 {
   "name": "Plastic attacks - Arras",
   "location": "Arras",
   "url": "https://docs.google.com/forms/d/e/1FAIpQLSe-0WQWlUntqC2JjWgdRXEh9yiWQ8LyMjjTsTiZ2etWqeinvg/viewform?usp=sf_link",
   "latitude": "50.291002",
   "longitude": " 2.777535",
   "event_type_name": "Plastic attacks",
   "start_time": "",
   "start_dt": "2019-24-05",
   "capacity": "",
   "id": "",
   "start_day": "",
   "venue_zip": "",
   "is_official": "1",
   "id_obfuscated": "gpg5bt"
 },
 {
   "name": "Plastic attacks - Auche",
   "location": "Auche",
   "url": "https://docs.google.com/forms/d/e/1FAIpQLSe-0WQWlUntqC2JjWgdRXEh9yiWQ8LyMjjTsTiZ2etWqeinvg/viewform?usp=sf_link",
   "latitude": "43.64638",
   "longitude": " 0.5867089999999999",
   "event_type_name": "Plastic attacks",
   "start_time": "",
   "start_dt": "2019-24-05",
   "capacity": "",
   "id": "",
   "start_day": "",
   "venue_zip": "",
   "is_official": "1",
   "id_obfuscated": "gpg5bt"
 },
 {
   "name": "Plastic attacks - Auffargis",
   "location": "Auffargis",
   "url": "https://docs.google.com/forms/d/e/1FAIpQLSe-0WQWlUntqC2JjWgdRXEh9yiWQ8LyMjjTsTiZ2etWqeinvg/viewform?usp=sf_link",
   "latitude": "48.700578",
   "longitude": " 1.887343",
   "event_type_name": "Plastic attacks",
   "start_time": "",
   "start_dt": "2019-24-05",
   "capacity": "",
   "id": "",
   "start_day": "",
   "venue_zip": "",
   "is_official": "1",
   "id_obfuscated": "gpg5bt"
 },
 {
   "name": "Plastic attacks - Avallon",
   "location": "Avallon",
   "url": "https://docs.google.com/forms/d/e/1FAIpQLSe-0WQWlUntqC2JjWgdRXEh9yiWQ8LyMjjTsTiZ2etWqeinvg/viewform?usp=sf_link",
   "latitude": "47.48822",
   "longitude": " 3.907721999999999",
   "event_type_name": "Plastic attacks",
   "start_time": "",
   "start_dt": "2019-24-05",
   "capacity": "",
   "id": "",
   "start_day": "",
   "venue_zip": "",
   "is_official": "1",
   "id_obfuscated": "gpg5bt"
 },
 {
   "name": "Plastic attacks - Avesnois",
   "location": "Avesnois",
   "url": "https://docs.google.com/forms/d/e/1FAIpQLSe-0WQWlUntqC2JjWgdRXEh9yiWQ8LyMjjTsTiZ2etWqeinvg/viewform?usp=sf_link",
   "latitude": "50.1332087",
   "longitude": " 3.7581847",
   "event_type_name": "Plastic attacks",
   "start_time": "",
   "start_dt": "2019-24-05",
   "capacity": "",
   "id": "",
   "start_day": "",
   "venue_zip": "",
   "is_official": "1",
   "id_obfuscated": "gpg5bt"
 },
 {
   "name": "Plastic attacks - Avignon",
   "location": "Avignon",
   "url": "https://docs.google.com/forms/d/e/1FAIpQLSe-0WQWlUntqC2JjWgdRXEh9yiWQ8LyMjjTsTiZ2etWqeinvg/viewform?usp=sf_link",
   "latitude": "43.94931700000001",
   "longitude": " 4.805528",
   "event_type_name": "Plastic attacks",
   "start_time": "",
   "start_dt": "2019-24-05",
   "capacity": "",
   "id": "",
   "start_day": "",
   "venue_zip": "",
   "is_official": "1",
   "id_obfuscated": "gpg5bt"
 },
 {
   "name": "Plastic attacks - Avranches",
   "location": "Avranches",
   "url": "https://docs.google.com/forms/d/e/1FAIpQLSe-0WQWlUntqC2JjWgdRXEh9yiWQ8LyMjjTsTiZ2etWqeinvg/viewform?usp=sf_link",
   "latitude": "48.686843",
   "longitude": " -1.36166",
   "event_type_name": "Plastic attacks",
   "start_time": "",
   "start_dt": "2019-24-05",
   "capacity": "",
   "id": "",
   "start_day": "",
   "venue_zip": "",
   "is_official": "1",
   "id_obfuscated": "gpg5bt"
 },
 {
   "name": "Plastic attacks - Bamako",
   "location": "Bamako",
   "url": "https://docs.google.com/forms/d/e/1FAIpQLSe-0WQWlUntqC2JjWgdRXEh9yiWQ8LyMjjTsTiZ2etWqeinvg/viewform?usp=sf_link",
   "latitude": "12.6363107",
   "longitude": " -8.0204795",
   "event_type_name": "Plastic attacks",
   "start_time": "",
   "start_dt": "2019-24-05",
   "capacity": "",
   "id": "",
   "start_day": "",
   "venue_zip": "",
   "is_official": "1",
   "id_obfuscated": "gpg5bt"
 },
 {
   "name": "Plastic attacks - Basse-Terre",
   "location": "Basse-Terre",
   "url": "https://docs.google.com/forms/d/e/1FAIpQLSe-0WQWlUntqC2JjWgdRXEh9yiWQ8LyMjjTsTiZ2etWqeinvg/viewform?usp=sf_link",
   "latitude": "48.8788472",
   "longitude": " -0.5157492",
   "event_type_name": "Plastic attacks",
   "start_time": "",
   "start_dt": "2019-24-05",
   "capacity": "",
   "id": "",
   "start_day": "",
   "venue_zip": "",
   "is_official": "1",
   "id_obfuscated": "gpg5bt"
 },
 {
   "name": "Plastic attacks - Bastia",
   "location": "Bastia",
   "url": "https://docs.google.com/forms/d/e/1FAIpQLSe-0WQWlUntqC2JjWgdRXEh9yiWQ8LyMjjTsTiZ2etWqeinvg/viewform?usp=sf_link",
   "latitude": "42.697283",
   "longitude": " 9.450880999999999",
   "event_type_name": "Plastic attacks",
   "start_time": "",
   "start_dt": "2019-24-05",
   "capacity": "",
   "id": "",
   "start_day": "",
   "venue_zip": "",
   "is_official": "1",
   "id_obfuscated": "gpg5bt"
 },
 {
   "name": "Plastic attacks - Bayeux",
   "location": "Bayeux",
   "url": "https://docs.google.com/forms/d/e/1FAIpQLSe-0WQWlUntqC2JjWgdRXEh9yiWQ8LyMjjTsTiZ2etWqeinvg/viewform?usp=sf_link",
   "latitude": "49.27643699999999",
   "longitude": " -0.70314",
   "event_type_name": "Plastic attacks",
   "start_time": "",
   "start_dt": "2019-24-05",
   "capacity": "",
   "id": "",
   "start_day": "",
   "venue_zip": "",
   "is_official": "1",
   "id_obfuscated": "gpg5bt"
 },
 {
   "name": "Plastic attacks - Beauvais",
   "location": "Beauvais",
   "url": "https://docs.google.com/forms/d/e/1FAIpQLSe-0WQWlUntqC2JjWgdRXEh9yiWQ8LyMjjTsTiZ2etWqeinvg/viewform?usp=sf_link",
   "latitude": "49.42953869999999",
   "longitude": " 2.0807123",
   "event_type_name": "Plastic attacks",
   "start_time": "",
   "start_dt": "2019-24-05",
   "capacity": "",
   "id": "",
   "start_day": "",
   "venue_zip": "",
   "is_official": "1",
   "id_obfuscated": "gpg5bt"
 },
 {
   "name": "Plastic attacks - Belfort",
   "location": "Belfort",
   "url": "https://docs.google.com/forms/d/e/1FAIpQLSe-0WQWlUntqC2JjWgdRXEh9yiWQ8LyMjjTsTiZ2etWqeinvg/viewform?usp=sf_link",
   "latitude": "47.63967400000001",
   "longitude": " 6.863849",
   "event_type_name": "Plastic attacks",
   "start_time": "",
   "start_dt": "2019-24-05",
   "capacity": "",
   "id": "",
   "start_day": "",
   "venue_zip": "",
   "is_official": "1",
   "id_obfuscated": "gpg5bt"
 },
 {
   "name": "Plastic attacks - Bern",
   "location": "Bern",
   "url": "https://docs.google.com/forms/d/e/1FAIpQLSe-0WQWlUntqC2JjWgdRXEh9yiWQ8LyMjjTsTiZ2etWqeinvg/viewform?usp=sf_link",
   "latitude": "46.94700479999999",
   "longitude": " 7.466492100000001",
   "event_type_name": "Plastic attacks",
   "start_time": "",
   "start_dt": "2019-24-05",
   "capacity": "",
   "id": "",
   "start_day": "",
   "venue_zip": "",
   "is_official": "1",
   "id_obfuscated": "gpg5bt"
 },
 {
   "name": "Plastic attacks - Besançon",
   "location": "Besançon",
   "url": "https://docs.google.com/forms/d/e/1FAIpQLSe-0WQWlUntqC2JjWgdRXEh9yiWQ8LyMjjTsTiZ2etWqeinvg/viewform?usp=sf_link",
   "latitude": "47.237829",
   "longitude": " 6.024053899999999",
   "event_type_name": "Plastic attacks",
   "start_time": "",
   "start_dt": "2019-24-05",
   "capacity": "",
   "id": "",
   "start_day": "",
   "venue_zip": "",
   "is_official": "1",
   "id_obfuscated": "gpg5bt"
 },
 {
   "name": "Plastic attacks - Biarritz ",
   "location": "Biarritz ",
   "url": "https://docs.google.com/forms/d/e/1FAIpQLSe-0WQWlUntqC2JjWgdRXEh9yiWQ8LyMjjTsTiZ2etWqeinvg/viewform?usp=sf_link",
   "latitude": "43.4831519",
   "longitude": " -1.558626",
   "event_type_name": "Plastic attacks",
   "start_time": "",
   "start_dt": "2019-24-05",
   "capacity": "",
   "id": "",
   "start_day": "",
   "venue_zip": "",
   "is_official": "1",
   "id_obfuscated": "gpg5bt"
 },
 {
   "name": "Plastic attacks - Blois",
   "location": "Blois",
   "url": "https://docs.google.com/forms/d/e/1FAIpQLSe-0WQWlUntqC2JjWgdRXEh9yiWQ8LyMjjTsTiZ2etWqeinvg/viewform?usp=sf_link",
   "latitude": "47.58609209999999",
   "longitude": " 1.3359475",
   "event_type_name": "Plastic attacks",
   "start_time": "",
   "start_dt": "2019-24-05",
   "capacity": "",
   "id": "",
   "start_day": "",
   "venue_zip": "",
   "is_official": "1",
   "id_obfuscated": "gpg5bt"
 },
 {
   "name": "Plastic attacks - Bogota",
   "location": "Bogota",
   "url": "https://docs.google.com/forms/d/e/1FAIpQLSe-0WQWlUntqC2JjWgdRXEh9yiWQ8LyMjjTsTiZ2etWqeinvg/viewform?usp=sf_link",
   "latitude": "4.6743697",
   "longitude": " -74.0475568",
   "event_type_name": "Plastic attacks",
   "start_time": "",
   "start_dt": "2019-24-05",
   "capacity": "",
   "id": "",
   "start_day": "",
   "venue_zip": "",
   "is_official": "1",
   "id_obfuscated": "gpg5bt"
 },
 {
   "name": "Plastic attacks - Bordeaux",
   "location": "Bordeaux",
   "url": "https://docs.google.com/forms/d/e/1FAIpQLSe-0WQWlUntqC2JjWgdRXEh9yiWQ8LyMjjTsTiZ2etWqeinvg/viewform?usp=sf_link",
   "latitude": "44.837789",
   "longitude": " -0.57918",
   "event_type_name": "Plastic attacks",
   "start_time": "",
   "start_dt": "2019-24-05",
   "capacity": "",
   "id": "",
   "start_day": "",
   "venue_zip": "",
   "is_official": "1",
   "id_obfuscated": "gpg5bt"
 },
 {
   "name": "Plastic attacks - Boulogne Billancourt",
   "location": "Boulogne Billancourt",
   "url": "https://docs.google.com/forms/d/e/1FAIpQLSe-0WQWlUntqC2JjWgdRXEh9yiWQ8LyMjjTsTiZ2etWqeinvg/viewform?usp=sf_link",
   "latitude": "48.8396952",
   "longitude": " 2.2399123",
   "event_type_name": "Plastic attacks",
   "start_time": "",
   "start_dt": "2019-24-05",
   "capacity": "",
   "id": "",
   "start_day": "",
   "venue_zip": "",
   "is_official": "1",
   "id_obfuscated": "gpg5bt"
 },
 {
   "name": "Plastic attacks - Boulogne-Sur-Mer",
   "location": "Boulogne-Sur-Mer",
   "url": "https://docs.google.com/forms/d/e/1FAIpQLSe-0WQWlUntqC2JjWgdRXEh9yiWQ8LyMjjTsTiZ2etWqeinvg/viewform?usp=sf_link",
   "latitude": "50.725231",
   "longitude": " 1.613334",
   "event_type_name": "Plastic attacks",
   "start_time": "",
   "start_dt": "2019-24-05",
   "capacity": "",
   "id": "",
   "start_day": "",
   "venue_zip": "",
   "is_official": "1",
   "id_obfuscated": "gpg5bt"
 },
 {
   "name": "Plastic attacks - Bourg En Bresse",
   "location": "Bourg En Bresse",
   "url": "https://docs.google.com/forms/d/e/1FAIpQLSe-0WQWlUntqC2JjWgdRXEh9yiWQ8LyMjjTsTiZ2etWqeinvg/viewform?usp=sf_link",
   "latitude": "46.20516749999999",
   "longitude": " 5.2255007",
   "event_type_name": "Plastic attacks",
   "start_time": "",
   "start_dt": "2019-24-05",
   "capacity": "",
   "id": "",
   "start_day": "",
   "venue_zip": "",
   "is_official": "1",
   "id_obfuscated": "gpg5bt"
 },
 {
   "name": "Plastic attacks - Bourges",
   "location": "Bourges",
   "url": "https://docs.google.com/forms/d/e/1FAIpQLSe-0WQWlUntqC2JjWgdRXEh9yiWQ8LyMjjTsTiZ2etWqeinvg/viewform?usp=sf_link",
   "latitude": "47.081012",
   "longitude": " 2.398782",
   "event_type_name": "Plastic attacks",
   "start_time": "",
   "start_dt": "2019-24-05",
   "capacity": "",
   "id": "",
   "start_day": "",
   "venue_zip": "",
   "is_official": "1",
   "id_obfuscated": "gpg5bt"
 },
 {
   "name": "Plastic attacks - Bourgoin Jallieux",
   "location": "Bourgoin Jallieux",
   "url": "https://docs.google.com/forms/d/e/1FAIpQLSe-0WQWlUntqC2JjWgdRXEh9yiWQ8LyMjjTsTiZ2etWqeinvg/viewform?usp=sf_link",
   "latitude": "45.597108",
   "longitude": " 5.27212",
   "event_type_name": "Plastic attacks",
   "start_time": "",
   "start_dt": "2019-24-05",
   "capacity": "",
   "id": "",
   "start_day": "",
   "venue_zip": "",
   "is_official": "1",
   "id_obfuscated": "gpg5bt"
 },
 {
   "name": "Plastic attacks - Boussy ",
   "location": "Boussy ",
   "url": "https://docs.google.com/forms/d/e/1FAIpQLSe-0WQWlUntqC2JjWgdRXEh9yiWQ8LyMjjTsTiZ2etWqeinvg/viewform?usp=sf_link",
   "latitude": "48.6892489",
   "longitude": " 2.530174",
   "event_type_name": "Plastic attacks",
   "start_time": "",
   "start_dt": "2019-24-05",
   "capacity": "",
   "id": "",
   "start_day": "",
   "venue_zip": "",
   "is_official": "1",
   "id_obfuscated": "gpg5bt"
 },
 {
   "name": "Plastic attacks - Brest",
   "location": "Brest",
   "url": "https://docs.google.com/forms/d/e/1FAIpQLSe-0WQWlUntqC2JjWgdRXEh9yiWQ8LyMjjTsTiZ2etWqeinvg/viewform?usp=sf_link",
   "latitude": "48.390394",
   "longitude": " -4.486076",
   "event_type_name": "Plastic attacks",
   "start_time": "",
   "start_dt": "2019-24-05",
   "capacity": "",
   "id": "",
   "start_day": "",
   "venue_zip": "",
   "is_official": "1",
   "id_obfuscated": "gpg5bt"
 },
 {
   "name": "Plastic attacks - Brive",
   "location": "Brive",
   "url": "https://docs.google.com/forms/d/e/1FAIpQLSe-0WQWlUntqC2JjWgdRXEh9yiWQ8LyMjjTsTiZ2etWqeinvg/viewform?usp=sf_link",
   "latitude": "45.159555",
   "longitude": " 1.533937",
   "event_type_name": "Plastic attacks",
   "start_time": "",
   "start_dt": "2019-24-05",
   "capacity": "",
   "id": "",
   "start_day": "",
   "venue_zip": "",
   "is_official": "1",
   "id_obfuscated": "gpg5bt"
 },
 {
   "name": "Plastic attacks - Brugny ",
   "location": "Brugny ",
   "url": "https://docs.google.com/forms/d/e/1FAIpQLSe-0WQWlUntqC2JjWgdRXEh9yiWQ8LyMjjTsTiZ2etWqeinvg/viewform?usp=sf_link",
   "latitude": "49.000048",
   "longitude": " 3.886076",
   "event_type_name": "Plastic attacks",
   "start_time": "",
   "start_dt": "2019-24-05",
   "capacity": "",
   "id": "",
   "start_day": "",
   "venue_zip": "",
   "is_official": "1",
   "id_obfuscated": "gpg5bt"
 },
 {
   "name": "Plastic attacks - Bruxelles",
   "location": "Bruxelles",
   "url": "https://docs.google.com/forms/d/e/1FAIpQLSe-0WQWlUntqC2JjWgdRXEh9yiWQ8LyMjjTsTiZ2etWqeinvg/viewform?usp=sf_link",
   "latitude": "50.842518",
   "longitude": " 4.3675857",
   "event_type_name": "Plastic attacks",
   "start_time": "",
   "start_dt": "2019-24-05",
   "capacity": "",
   "id": "",
   "start_day": "",
   "venue_zip": "",
   "is_official": "1",
   "id_obfuscated": "gpg5bt"
 },
 {
   "name": "Plastic attacks - Caen",
   "location": "Caen",
   "url": "https://docs.google.com/forms/d/e/1FAIpQLSe-0WQWlUntqC2JjWgdRXEh9yiWQ8LyMjjTsTiZ2etWqeinvg/viewform?usp=sf_link",
   "latitude": "49.182863",
   "longitude": " -0.370679",
   "event_type_name": "Plastic attacks",
   "start_time": "",
   "start_dt": "2019-24-05",
   "capacity": "",
   "id": "",
   "start_day": "",
   "venue_zip": "",
   "is_official": "1",
   "id_obfuscated": "gpg5bt"
 },
 {
   "name": "Plastic attacks - Cannes ",
   "location": "Cannes ",
   "url": "https://docs.google.com/forms/d/e/1FAIpQLSe-0WQWlUntqC2JjWgdRXEh9yiWQ8LyMjjTsTiZ2etWqeinvg/viewform?usp=sf_link",
   "latitude": "43.552847",
   "longitude": " 7.017369",
   "event_type_name": "Plastic attacks",
   "start_time": "",
   "start_dt": "2019-24-05",
   "capacity": "",
   "id": "",
   "start_day": "",
   "venue_zip": "",
   "is_official": "1",
   "id_obfuscated": "gpg5bt"
 },
 {
   "name": "Plastic attacks - Carcassone",
   "location": "Carcassone",
   "url": "https://docs.google.com/forms/d/e/1FAIpQLSe-0WQWlUntqC2JjWgdRXEh9yiWQ8LyMjjTsTiZ2etWqeinvg/viewform?usp=sf_link",
   "latitude": "43.2132151",
   "longitude": " 2.3517703",
   "event_type_name": "Plastic attacks",
   "start_time": "",
   "start_dt": "2019-24-05",
   "capacity": "",
   "id": "",
   "start_day": "",
   "venue_zip": "",
   "is_official": "1",
   "id_obfuscated": "gpg5bt"
 },
 {
   "name": "Plastic attacks - Castelneau Valence",
   "location": "Castelneau Valence",
   "url": "https://docs.google.com/forms/d/e/1FAIpQLSe-0WQWlUntqC2JjWgdRXEh9yiWQ8LyMjjTsTiZ2etWqeinvg/viewform?usp=sf_link",
   "latitude": "44.01248340000001",
   "longitude": " 4.248717",
   "event_type_name": "Plastic attacks",
   "start_time": "",
   "start_dt": "2019-24-05",
   "capacity": "",
   "id": "",
   "start_day": "",
   "venue_zip": "",
   "is_official": "1",
   "id_obfuscated": "gpg5bt"
 },
 {
   "name": "Plastic attacks - Cayenne",
   "location": "Cayenne",
   "url": "https://docs.google.com/forms/d/e/1FAIpQLSe-0WQWlUntqC2JjWgdRXEh9yiWQ8LyMjjTsTiZ2etWqeinvg/viewform?usp=sf_link",
   "latitude": "4.92242",
   "longitude": " -52.3134531",
   "event_type_name": "Plastic attacks",
   "start_time": "",
   "start_dt": "2019-24-05",
   "capacity": "",
   "id": "",
   "start_day": "",
   "venue_zip": "",
   "is_official": "1",
   "id_obfuscated": "gpg5bt"
 },
 {
   "name": "Plastic attacks - Cergy ",
   "location": "Cergy ",
   "url": "https://docs.google.com/forms/d/e/1FAIpQLSe-0WQWlUntqC2JjWgdRXEh9yiWQ8LyMjjTsTiZ2etWqeinvg/viewform?usp=sf_link",
   "latitude": "49.03561699999999",
   "longitude": " 2.060325",
   "event_type_name": "Plastic attacks",
   "start_time": "",
   "start_dt": "2019-24-05",
   "capacity": "",
   "id": "",
   "start_day": "",
   "venue_zip": "",
   "is_official": "1",
   "id_obfuscated": "gpg5bt"
 },
 {
   "name": "Plastic attacks - Châlon Sur Saone",
   "location": "Châlon Sur Saone",
   "url": "https://docs.google.com/forms/d/e/1FAIpQLSe-0WQWlUntqC2JjWgdRXEh9yiWQ8LyMjjTsTiZ2etWqeinvg/viewform?usp=sf_link",
   "latitude": "46.780764",
   "longitude": " 4.853947",
   "event_type_name": "Plastic attacks",
   "start_time": "",
   "start_dt": "2019-24-05",
   "capacity": "",
   "id": "",
   "start_day": "",
   "venue_zip": "",
   "is_official": "1",
   "id_obfuscated": "gpg5bt"
 },
 {
   "name": "Plastic attacks - Châlons-En-Champagne",
   "location": "Châlons-En-Champagne",
   "url": "https://docs.google.com/forms/d/e/1FAIpQLSe-0WQWlUntqC2JjWgdRXEh9yiWQ8LyMjjTsTiZ2etWqeinvg/viewform?usp=sf_link",
   "latitude": "48.956682",
   "longitude": " 4.363073",
   "event_type_name": "Plastic attacks",
   "start_time": "",
   "start_dt": "2019-24-05",
   "capacity": "",
   "id": "",
   "start_day": "",
   "venue_zip": "",
   "is_official": "1",
   "id_obfuscated": "gpg5bt"
 },
 {
   "name": "Plastic attacks - Chambéry",
   "location": "Chambéry",
   "url": "https://docs.google.com/forms/d/e/1FAIpQLSe-0WQWlUntqC2JjWgdRXEh9yiWQ8LyMjjTsTiZ2etWqeinvg/viewform?usp=sf_link",
   "latitude": "45.564601",
   "longitude": " 5.917781",
   "event_type_name": "Plastic attacks",
   "start_time": "",
   "start_dt": "2019-24-05",
   "capacity": "",
   "id": "",
   "start_day": "",
   "venue_zip": "",
   "is_official": "1",
   "id_obfuscated": "gpg5bt"
 },
 {
   "name": "Plastic attacks - Chennevières-Sur-Marne",
   "location": "Chennevières-Sur-Marne",
   "url": "https://docs.google.com/forms/d/e/1FAIpQLSe-0WQWlUntqC2JjWgdRXEh9yiWQ8LyMjjTsTiZ2etWqeinvg/viewform?usp=sf_link",
   "latitude": "48.796124",
   "longitude": " 2.53507",
   "event_type_name": "Plastic attacks",
   "start_time": "",
   "start_dt": "2019-24-05",
   "capacity": "",
   "id": "",
   "start_day": "",
   "venue_zip": "",
   "is_official": "1",
   "id_obfuscated": "gpg5bt"
 },
 {
   "name": "Plastic attacks - Cherbourg",
   "location": "Cherbourg",
   "url": "https://docs.google.com/forms/d/e/1FAIpQLSe-0WQWlUntqC2JjWgdRXEh9yiWQ8LyMjjTsTiZ2etWqeinvg/viewform?usp=sf_link",
   "latitude": "49.6337308",
   "longitude": " -1.622137",
   "event_type_name": "Plastic attacks",
   "start_time": "",
   "start_dt": "2019-24-05",
   "capacity": "",
   "id": "",
   "start_day": "",
   "venue_zip": "",
   "is_official": "1",
   "id_obfuscated": "gpg5bt"
 },
 {
   "name": "Plastic attacks - Clermont Ferrand",
   "location": "Clermont Ferrand",
   "url": "https://docs.google.com/forms/d/e/1FAIpQLSe-0WQWlUntqC2JjWgdRXEh9yiWQ8LyMjjTsTiZ2etWqeinvg/viewform?usp=sf_link",
   "latitude": "45.77722199999999",
   "longitude": " 3.087025",
   "event_type_name": "Plastic attacks",
   "start_time": "",
   "start_dt": "2019-24-05",
   "capacity": "",
   "id": "",
   "start_day": "",
   "venue_zip": "",
   "is_official": "1",
   "id_obfuscated": "gpg5bt"
 },
 {
   "name": "Plastic attacks - Cognac",
   "location": "Cognac",
   "url": "https://docs.google.com/forms/d/e/1FAIpQLSe-0WQWlUntqC2JjWgdRXEh9yiWQ8LyMjjTsTiZ2etWqeinvg/viewform?usp=sf_link",
   "latitude": "45.691046",
   "longitude": " -0.328744",
   "event_type_name": "Plastic attacks",
   "start_time": "",
   "start_dt": "2019-24-05",
   "capacity": "",
   "id": "",
   "start_day": "",
   "venue_zip": "",
   "is_official": "1",
   "id_obfuscated": "gpg5bt"
 },
 {
   "name": "Plastic attacks - Colmar",
   "location": "Colmar",
   "url": "https://docs.google.com/forms/d/e/1FAIpQLSe-0WQWlUntqC2JjWgdRXEh9yiWQ8LyMjjTsTiZ2etWqeinvg/viewform?usp=sf_link",
   "latitude": "48.0793589",
   "longitude": " 7.358511999999999",
   "event_type_name": "Plastic attacks",
   "start_time": "",
   "start_dt": "2019-24-05",
   "capacity": "",
   "id": "",
   "start_day": "",
   "venue_zip": "",
   "is_official": "1",
   "id_obfuscated": "gpg5bt"
 },
 {
   "name": "Plastic attacks - Colomiers",
   "location": "Colomiers",
   "url": "https://docs.google.com/forms/d/e/1FAIpQLSe-0WQWlUntqC2JjWgdRXEh9yiWQ8LyMjjTsTiZ2etWqeinvg/viewform?usp=sf_link",
   "latitude": "43.612189",
   "longitude": " 1.336579",
   "event_type_name": "Plastic attacks",
   "start_time": "",
   "start_dt": "2019-24-05",
   "capacity": "",
   "id": "",
   "start_day": "",
   "venue_zip": "",
   "is_official": "1",
   "id_obfuscated": "gpg5bt"
 },
 {
   "name": "Plastic attacks - Compiègne",
   "location": "Compiègne",
   "url": "https://docs.google.com/forms/d/e/1FAIpQLSe-0WQWlUntqC2JjWgdRXEh9yiWQ8LyMjjTsTiZ2etWqeinvg/viewform?usp=sf_link",
   "latitude": "49.41781599999999",
   "longitude": " 2.826145",
   "event_type_name": "Plastic attacks",
   "start_time": "",
   "start_dt": "2019-24-05",
   "capacity": "",
   "id": "",
   "start_day": "",
   "venue_zip": "",
   "is_official": "1",
   "id_obfuscated": "gpg5bt"
 },
 {
   "name": "Plastic attacks - Conakry",
   "location": "Conakry",
   "url": "https://docs.google.com/forms/d/e/1FAIpQLSe-0WQWlUntqC2JjWgdRXEh9yiWQ8LyMjjTsTiZ2etWqeinvg/viewform?usp=sf_link",
   "latitude": "9.511594299999999",
   "longitude": " -13.7147811",
   "event_type_name": "Plastic attacks",
   "start_time": "",
   "start_dt": "2019-24-05",
   "capacity": "",
   "id": "",
   "start_day": "",
   "venue_zip": "",
   "is_official": "1",
   "id_obfuscated": "gpg5bt"
 },
 {
   "name": "Plastic attacks - Corbeil Essonne",
   "location": "Corbeil Essonne",
   "url": "https://docs.google.com/forms/d/e/1FAIpQLSe-0WQWlUntqC2JjWgdRXEh9yiWQ8LyMjjTsTiZ2etWqeinvg/viewform?usp=sf_link",
   "latitude": "48.6102599",
   "longitude": " 2.474805",
   "event_type_name": "Plastic attacks",
   "start_time": "",
   "start_dt": "2019-24-05",
   "capacity": "",
   "id": "",
   "start_day": "",
   "venue_zip": "",
   "is_official": "1",
   "id_obfuscated": "gpg5bt"
 },
 {
   "name": "Plastic attacks - Coulommiers",
   "location": "Coulommiers",
   "url": "https://docs.google.com/forms/d/e/1FAIpQLSe-0WQWlUntqC2JjWgdRXEh9yiWQ8LyMjjTsTiZ2etWqeinvg/viewform?usp=sf_link",
   "latitude": "48.813071",
   "longitude": " 3.083497",
   "event_type_name": "Plastic attacks",
   "start_time": "",
   "start_dt": "2019-24-05",
   "capacity": "",
   "id": "",
   "start_day": "",
   "venue_zip": "",
   "is_official": "1",
   "id_obfuscated": "gpg5bt"
 },
 {
   "name": "Plastic attacks - Courbevoie",
   "location": "Courbevoie",
   "url": "https://docs.google.com/forms/d/e/1FAIpQLSe-0WQWlUntqC2JjWgdRXEh9yiWQ8LyMjjTsTiZ2etWqeinvg/viewform?usp=sf_link",
   "latitude": "48.900552",
   "longitude": " 2.25929",
   "event_type_name": "Plastic attacks",
   "start_time": "",
   "start_dt": "2019-24-05",
   "capacity": "",
   "id": "",
   "start_day": "",
   "venue_zip": "",
   "is_official": "1",
   "id_obfuscated": "gpg5bt"
 },
 {
   "name": "Plastic attacks - Digne Les Bains",
   "location": "Digne Les Bains",
   "url": "https://docs.google.com/forms/d/e/1FAIpQLSe-0WQWlUntqC2JjWgdRXEh9yiWQ8LyMjjTsTiZ2etWqeinvg/viewform?usp=sf_link",
   "latitude": "44.09219299999999",
   "longitude": " 6.235976",
   "event_type_name": "Plastic attacks",
   "start_time": "",
   "start_dt": "2019-24-05",
   "capacity": "",
   "id": "",
   "start_day": "",
   "venue_zip": "",
   "is_official": "1",
   "id_obfuscated": "gpg5bt"
 },
 {
   "name": "Plastic attacks - Dijon",
   "location": "Dijon",
   "url": "https://docs.google.com/forms/d/e/1FAIpQLSe-0WQWlUntqC2JjWgdRXEh9yiWQ8LyMjjTsTiZ2etWqeinvg/viewform?usp=sf_link",
   "latitude": "47.322047",
   "longitude": " 5.04148",
   "event_type_name": "Plastic attacks",
   "start_time": "",
   "start_dt": "2019-24-05",
   "capacity": "",
   "id": "",
   "start_day": "",
   "venue_zip": "",
   "is_official": "1",
   "id_obfuscated": "gpg5bt"
 },
 {
   "name": "Plastic attacks - Epone",
   "location": "Epone",
   "url": "https://docs.google.com/forms/d/e/1FAIpQLSe-0WQWlUntqC2JjWgdRXEh9yiWQ8LyMjjTsTiZ2etWqeinvg/viewform?usp=sf_link",
   "latitude": "48.957802",
   "longitude": " 1.812542",
   "event_type_name": "Plastic attacks",
   "start_time": "",
   "start_dt": "2019-24-05",
   "capacity": "",
   "id": "",
   "start_day": "",
   "venue_zip": "",
   "is_official": "1",
   "id_obfuscated": "gpg5bt"
 },
 {
   "name": "Plastic attacks - Evry",
   "location": "Evry",
   "url": "https://docs.google.com/forms/d/e/1FAIpQLSe-0WQWlUntqC2JjWgdRXEh9yiWQ8LyMjjTsTiZ2etWqeinvg/viewform?usp=sf_link",
   "latitude": "48.629828",
   "longitude": " 2.441782",
   "event_type_name": "Plastic attacks",
   "start_time": "",
   "start_dt": "2019-24-05",
   "capacity": "",
   "id": "",
   "start_day": "",
   "venue_zip": "",
   "is_official": "1",
   "id_obfuscated": "gpg5bt"
 },
 {
   "name": "Plastic attacks - Fécamp",
   "location": "Fécamp",
   "url": "https://docs.google.com/forms/d/e/1FAIpQLSe-0WQWlUntqC2JjWgdRXEh9yiWQ8LyMjjTsTiZ2etWqeinvg/viewform?usp=sf_link",
   "latitude": "49.755601",
   "longitude": " 0.380774",
   "event_type_name": "Plastic attacks",
   "start_time": "",
   "start_dt": "2019-24-05",
   "capacity": "",
   "id": "",
   "start_day": "",
   "venue_zip": "",
   "is_official": "1",
   "id_obfuscated": "gpg5bt"
 },
 {
   "name": "Plastic attacks - Feurs",
   "location": "Feurs",
   "url": "https://docs.google.com/forms/d/e/1FAIpQLSe-0WQWlUntqC2JjWgdRXEh9yiWQ8LyMjjTsTiZ2etWqeinvg/viewform?usp=sf_link",
   "latitude": "45.7436262",
   "longitude": " 4.223236500000001",
   "event_type_name": "Plastic attacks",
   "start_time": "",
   "start_dt": "2019-24-05",
   "capacity": "",
   "id": "",
   "start_day": "",
   "venue_zip": "",
   "is_official": "1",
   "id_obfuscated": "gpg5bt"
 },
 {
   "name": "Plastic attacks - Foix",
   "location": "Foix",
   "url": "https://docs.google.com/forms/d/e/1FAIpQLSe-0WQWlUntqC2JjWgdRXEh9yiWQ8LyMjjTsTiZ2etWqeinvg/viewform?usp=sf_link",
   "latitude": "42.964127",
   "longitude": " 1.605232",
   "event_type_name": "Plastic attacks",
   "start_time": "",
   "start_dt": "2019-24-05",
   "capacity": "",
   "id": "",
   "start_day": "",
   "venue_zip": "",
   "is_official": "1",
   "id_obfuscated": "gpg5bt"
 },
 {
   "name": "Plastic attacks - Fontainebleau",
   "location": "Fontainebleau",
   "url": "https://docs.google.com/forms/d/e/1FAIpQLSe-0WQWlUntqC2JjWgdRXEh9yiWQ8LyMjjTsTiZ2etWqeinvg/viewform?usp=sf_link",
   "latitude": "48.40467599999999",
   "longitude": " 2.70162",
   "event_type_name": "Plastic attacks",
   "start_time": "",
   "start_dt": "2019-24-05",
   "capacity": "",
   "id": "",
   "start_day": "",
   "venue_zip": "",
   "is_official": "1",
   "id_obfuscated": "gpg5bt"
 },
 {
   "name": "Plastic attacks - Fontenay Sous Bois",
   "location": "Fontenay Sous Bois",
   "url": "https://docs.google.com/forms/d/e/1FAIpQLSe-0WQWlUntqC2JjWgdRXEh9yiWQ8LyMjjTsTiZ2etWqeinvg/viewform?usp=sf_link",
   "latitude": "48.851542",
   "longitude": " 2.475907",
   "event_type_name": "Plastic attacks",
   "start_time": "",
   "start_dt": "2019-24-05",
   "capacity": "",
   "id": "",
   "start_day": "",
   "venue_zip": "",
   "is_official": "1",
   "id_obfuscated": "gpg5bt"
 },
 {
   "name": "Plastic attacks - Gaillac",
   "location": "Gaillac",
   "url": "https://docs.google.com/forms/d/e/1FAIpQLSe-0WQWlUntqC2JjWgdRXEh9yiWQ8LyMjjTsTiZ2etWqeinvg/viewform?usp=sf_link",
   "latitude": "43.9018159",
   "longitude": " 1.896506",
   "event_type_name": "Plastic attacks",
   "start_time": "",
   "start_dt": "2019-24-05",
   "capacity": "",
   "id": "",
   "start_day": "",
   "venue_zip": "",
   "is_official": "1",
   "id_obfuscated": "gpg5bt"
 },
 {
   "name": "Plastic attacks - Gap",
   "location": "Gap",
   "url": "https://docs.google.com/forms/d/e/1FAIpQLSe-0WQWlUntqC2JjWgdRXEh9yiWQ8LyMjjTsTiZ2etWqeinvg/viewform?usp=sf_link",
   "latitude": "44.559638",
   "longitude": " 6.079758",
   "event_type_name": "Plastic attacks",
   "start_time": "",
   "start_dt": "2019-24-05",
   "capacity": "",
   "id": "",
   "start_day": "",
   "venue_zip": "",
   "is_official": "1",
   "id_obfuscated": "gpg5bt"
 },
 {
   "name": "Plastic attacks - Genève",
   "location": "Genève",
   "url": "https://docs.google.com/forms/d/e/1FAIpQLSe-0WQWlUntqC2JjWgdRXEh9yiWQ8LyMjjTsTiZ2etWqeinvg/viewform?usp=sf_link",
   "latitude": "46.198245",
   "longitude": " 6.147174",
   "event_type_name": "Plastic attacks",
   "start_time": "",
   "start_dt": "2019-24-05",
   "capacity": "",
   "id": "",
   "start_day": "",
   "venue_zip": "",
   "is_official": "1",
   "id_obfuscated": "gpg5bt"
 },
 {
   "name": "Plastic attacks - Gouvieux",
   "location": "Gouvieux",
   "url": "https://docs.google.com/forms/d/e/1FAIpQLSe-0WQWlUntqC2JjWgdRXEh9yiWQ8LyMjjTsTiZ2etWqeinvg/viewform?usp=sf_link",
   "latitude": "49.192878",
   "longitude": " 2.409336",
   "event_type_name": "Plastic attacks",
   "start_time": "",
   "start_dt": "2019-24-05",
   "capacity": "",
   "id": "",
   "start_day": "",
   "venue_zip": "",
   "is_official": "1",
   "id_obfuscated": "gpg5bt"
 },
 {
   "name": "Plastic attacks - Grandville",
   "location": "Grandville",
   "url": "https://docs.google.com/forms/d/e/1FAIpQLSe-0WQWlUntqC2JjWgdRXEh9yiWQ8LyMjjTsTiZ2etWqeinvg/viewform?usp=sf_link",
   "latitude": "48.837579",
   "longitude": " -1.597302",
   "event_type_name": "Plastic attacks",
   "start_time": "",
   "start_dt": "2019-24-05",
   "capacity": "",
   "id": "",
   "start_day": "",
   "venue_zip": "",
   "is_official": "1",
   "id_obfuscated": "gpg5bt"
 },
 {
   "name": "Plastic attacks - Grasse",
   "location": "Grasse",
   "url": "https://docs.google.com/forms/d/e/1FAIpQLSe-0WQWlUntqC2JjWgdRXEh9yiWQ8LyMjjTsTiZ2etWqeinvg/viewform?usp=sf_link",
   "latitude": "43.660153",
   "longitude": " 6.926492",
   "event_type_name": "Plastic attacks",
   "start_time": "",
   "start_dt": "2019-24-05",
   "capacity": "",
   "id": "",
   "start_day": "",
   "venue_zip": "",
   "is_official": "1",
   "id_obfuscated": "gpg5bt"
 },
 {
   "name": "Plastic attacks - Grenoble",
   "location": "Grenoble",
   "url": "https://docs.google.com/forms/d/e/1FAIpQLSe-0WQWlUntqC2JjWgdRXEh9yiWQ8LyMjjTsTiZ2etWqeinvg/viewform?usp=sf_link",
   "latitude": "45.188529",
   "longitude": " 5.724524",
   "event_type_name": "Plastic attacks",
   "start_time": "",
   "start_dt": "2019-24-05",
   "capacity": "",
   "id": "",
   "start_day": "",
   "venue_zip": "",
   "is_official": "1",
   "id_obfuscated": "gpg5bt"
 },
 {
   "name": "Plastic attacks - Guérande",
   "location": "Guérande",
   "url": "https://docs.google.com/forms/d/e/1FAIpQLSe-0WQWlUntqC2JjWgdRXEh9yiWQ8LyMjjTsTiZ2etWqeinvg/viewform?usp=sf_link",
   "latitude": "47.328003",
   "longitude": " -2.4297589",
   "event_type_name": "Plastic attacks",
   "start_time": "",
   "start_dt": "2019-24-05",
   "capacity": "",
   "id": "",
   "start_day": "",
   "venue_zip": "",
   "is_official": "1",
   "id_obfuscated": "gpg5bt"
 },
 {
   "name": "Plastic attacks - Houilles",
   "location": "Houilles",
   "url": "https://docs.google.com/forms/d/e/1FAIpQLSe-0WQWlUntqC2JjWgdRXEh9yiWQ8LyMjjTsTiZ2etWqeinvg/viewform?usp=sf_link",
   "latitude": "48.926916",
   "longitude": " 2.18888",
   "event_type_name": "Plastic attacks",
   "start_time": "",
   "start_dt": "2019-24-05",
   "capacity": "",
   "id": "",
   "start_day": "",
   "venue_zip": "",
   "is_official": "1",
   "id_obfuscated": "gpg5bt"
 },
 {
   "name": "Plastic attacks - Jard Sur Mer",
   "location": "Jard Sur Mer",
   "url": "https://docs.google.com/forms/d/e/1FAIpQLSe-0WQWlUntqC2JjWgdRXEh9yiWQ8LyMjjTsTiZ2etWqeinvg/viewform?usp=sf_link",
   "latitude": "46.4125677",
   "longitude": " -1.5771386",
   "event_type_name": "Plastic attacks",
   "start_time": "",
   "start_dt": "2019-24-05",
   "capacity": "",
   "id": "",
   "start_day": "",
   "venue_zip": "",
   "is_official": "1",
   "id_obfuscated": "gpg5bt"
 },
 {
   "name": "Plastic attacks - Juvisy",
   "location": "Juvisy",
   "url": "https://docs.google.com/forms/d/e/1FAIpQLSe-0WQWlUntqC2JjWgdRXEh9yiWQ8LyMjjTsTiZ2etWqeinvg/viewform?usp=sf_link",
   "latitude": "48.691738",
   "longitude": " 2.37216",
   "event_type_name": "Plastic attacks",
   "start_time": "",
   "start_dt": "2019-24-05",
   "capacity": "",
   "id": "",
   "start_day": "",
   "venue_zip": "",
   "is_official": "1",
   "id_obfuscated": "gpg5bt"
 },
 {
   "name": "Plastic attacks - L'Hay-Les-Roses",
   "location": "L'Hay-Les-Roses",
   "url": "https://docs.google.com/forms/d/e/1FAIpQLSe-0WQWlUntqC2JjWgdRXEh9yiWQ8LyMjjTsTiZ2etWqeinvg/viewform?usp=sf_link",
   "latitude": "48.7789659",
   "longitude": " 2.338084",
   "event_type_name": "Plastic attacks",
   "start_time": "",
   "start_dt": "2019-24-05",
   "capacity": "",
   "id": "",
   "start_day": "",
   "venue_zip": "",
   "is_official": "1",
   "id_obfuscated": "gpg5bt"
 },
 {
   "name": "Plastic attacks - La Ciotat",
   "location": "La Ciotat",
   "url": "https://docs.google.com/forms/d/e/1FAIpQLSe-0WQWlUntqC2JjWgdRXEh9yiWQ8LyMjjTsTiZ2etWqeinvg/viewform?usp=sf_link",
   "latitude": "43.17365299999999",
   "longitude": " 5.605155",
   "event_type_name": "Plastic attacks",
   "start_time": "",
   "start_dt": "2019-24-05",
   "capacity": "",
   "id": "",
   "start_day": "",
   "venue_zip": "",
   "is_official": "1",
   "id_obfuscated": "gpg5bt"
 },
 {
   "name": "Plastic attacks - La Réunion",
   "location": "La Réunion",
   "url": "https://docs.google.com/forms/d/e/1FAIpQLSe-0WQWlUntqC2JjWgdRXEh9yiWQ8LyMjjTsTiZ2etWqeinvg/viewform?usp=sf_link",
   "latitude": "-21.115141",
   "longitude": " 55.536384",
   "event_type_name": "Plastic attacks",
   "start_time": "",
   "start_dt": "2019-24-05",
   "capacity": "",
   "id": "",
   "start_day": "",
   "venue_zip": "",
   "is_official": "1",
   "id_obfuscated": "gpg5bt"
 },
 {
   "name": "Plastic attacks - La Roche Sur Yon",
   "location": "La Roche Sur Yon",
   "url": "https://docs.google.com/forms/d/e/1FAIpQLSe-0WQWlUntqC2JjWgdRXEh9yiWQ8LyMjjTsTiZ2etWqeinvg/viewform?usp=sf_link",
   "latitude": "46.670511",
   "longitude": " -1.426442",
   "event_type_name": "Plastic attacks",
   "start_time": "",
   "start_dt": "2019-24-05",
   "capacity": "",
   "id": "",
   "start_day": "",
   "venue_zip": "",
   "is_official": "1",
   "id_obfuscated": "gpg5bt"
 },
 {
   "name": "Plastic attacks - La Seyne Sur Mer",
   "location": "La Seyne Sur Mer",
   "url": "https://docs.google.com/forms/d/e/1FAIpQLSe-0WQWlUntqC2JjWgdRXEh9yiWQ8LyMjjTsTiZ2etWqeinvg/viewform?usp=sf_link",
   "latitude": "43.102976",
   "longitude": " 5.878219",
   "event_type_name": "Plastic attacks",
   "start_time": "",
   "start_dt": "2019-24-05",
   "capacity": "",
   "id": "",
   "start_day": "",
   "venue_zip": "",
   "is_official": "1",
   "id_obfuscated": "gpg5bt"
 },
 {
   "name": "Plastic attacks - Lagny Sur Marne",
   "location": "Lagny Sur Marne",
   "url": "https://docs.google.com/forms/d/e/1FAIpQLSe-0WQWlUntqC2JjWgdRXEh9yiWQ8LyMjjTsTiZ2etWqeinvg/viewform?usp=sf_link",
   "latitude": "48.87296",
   "longitude": " 2.713016",
   "event_type_name": "Plastic attacks",
   "start_time": "",
   "start_dt": "2019-24-05",
   "capacity": "",
   "id": "",
   "start_day": "",
   "venue_zip": "",
   "is_official": "1",
   "id_obfuscated": "gpg5bt"
 },
 {
   "name": "Plastic attacks - Lannion",
   "location": "Lannion",
   "url": "https://docs.google.com/forms/d/e/1FAIpQLSe-0WQWlUntqC2JjWgdRXEh9yiWQ8LyMjjTsTiZ2etWqeinvg/viewform?usp=sf_link",
   "latitude": "48.732084",
   "longitude": " -3.459144",
   "event_type_name": "Plastic attacks",
   "start_time": "",
   "start_dt": "2019-24-05",
   "capacity": "",
   "id": "",
   "start_day": "",
   "venue_zip": "",
   "is_official": "1",
   "id_obfuscated": "gpg5bt"
 },
 {
   "name": "Plastic attacks - Le Havre",
   "location": "Le Havre",
   "url": "https://docs.google.com/forms/d/e/1FAIpQLSe-0WQWlUntqC2JjWgdRXEh9yiWQ8LyMjjTsTiZ2etWqeinvg/viewform?usp=sf_link",
   "latitude": "49.49437",
   "longitude": " 0.107929",
   "event_type_name": "Plastic attacks",
   "start_time": "",
   "start_dt": "2019-24-05",
   "capacity": "",
   "id": "",
   "start_day": "",
   "venue_zip": "",
   "is_official": "1",
   "id_obfuscated": "gpg5bt"
 },
 {
   "name": "Plastic attacks - Le Mans",
   "location": "Le Mans",
   "url": "https://docs.google.com/forms/d/e/1FAIpQLSe-0WQWlUntqC2JjWgdRXEh9yiWQ8LyMjjTsTiZ2etWqeinvg/viewform?usp=sf_link",
   "latitude": "48.00611000000001",
   "longitude": " 0.199556",
   "event_type_name": "Plastic attacks",
   "start_time": "",
   "start_dt": "2019-24-05",
   "capacity": "",
   "id": "",
   "start_day": "",
   "venue_zip": "",
   "is_official": "1",
   "id_obfuscated": "gpg5bt"
 },
 {
   "name": "Plastic attacks - Les Vans",
   "location": "Les Vans",
   "url": "https://docs.google.com/forms/d/e/1FAIpQLSe-0WQWlUntqC2JjWgdRXEh9yiWQ8LyMjjTsTiZ2etWqeinvg/viewform?usp=sf_link",
   "latitude": "44.404688",
   "longitude": " 4.1319169",
   "event_type_name": "Plastic attacks",
   "start_time": "",
   "start_dt": "2019-24-05",
   "capacity": "",
   "id": "",
   "start_day": "",
   "venue_zip": "",
   "is_official": "1",
   "id_obfuscated": "gpg5bt"
 },
 {
   "name": "Plastic attacks - Lille",
   "location": "Lille",
   "url": "https://docs.google.com/forms/d/e/1FAIpQLSe-0WQWlUntqC2JjWgdRXEh9yiWQ8LyMjjTsTiZ2etWqeinvg/viewform?usp=sf_link",
   "latitude": "50.62925",
   "longitude": " 3.057256",
   "event_type_name": "Plastic attacks",
   "start_time": "",
   "start_dt": "2019-24-05",
   "capacity": "",
   "id": "",
   "start_day": "",
   "venue_zip": "",
   "is_official": "1",
   "id_obfuscated": "gpg5bt"
 },
 {
   "name": "Plastic attacks - Limoges",
   "location": "Limoges",
   "url": "https://docs.google.com/forms/d/e/1FAIpQLSe-0WQWlUntqC2JjWgdRXEh9yiWQ8LyMjjTsTiZ2etWqeinvg/viewform?usp=sf_link",
   "latitude": "45.83361900000001",
   "longitude": " 1.261105",
   "event_type_name": "Plastic attacks",
   "start_time": "",
   "start_dt": "2019-24-05",
   "capacity": "",
   "id": "",
   "start_day": "",
   "venue_zip": "",
   "is_official": "1",
   "id_obfuscated": "gpg5bt"
 },
 {
   "name": "Plastic attacks - Lorient",
   "location": "Lorient",
   "url": "https://docs.google.com/forms/d/e/1FAIpQLSe-0WQWlUntqC2JjWgdRXEh9yiWQ8LyMjjTsTiZ2etWqeinvg/viewform?usp=sf_link",
   "latitude": "47.7482524",
   "longitude": " -3.3702449",
   "event_type_name": "Plastic attacks",
   "start_time": "",
   "start_dt": "2019-24-05",
   "capacity": "",
   "id": "",
   "start_day": "",
   "venue_zip": "",
   "is_official": "1",
   "id_obfuscated": "gpg5bt"
 },
 {
   "name": "Plastic attacks - Lyon",
   "location": "Lyon",
   "url": "https://docs.google.com/forms/d/e/1FAIpQLSe-0WQWlUntqC2JjWgdRXEh9yiWQ8LyMjjTsTiZ2etWqeinvg/viewform?usp=sf_link",
   "latitude": "45.764043",
   "longitude": " 4.835659",
   "event_type_name": "Plastic attacks",
   "start_time": "",
   "start_dt": "2019-24-05",
   "capacity": "",
   "id": "",
   "start_day": "",
   "venue_zip": "",
   "is_official": "1",
   "id_obfuscated": "gpg5bt"
 },
 {
   "name": "Plastic attacks - Magny Le Hongre",
   "location": "Magny Le Hongre",
   "url": "https://docs.google.com/forms/d/e/1FAIpQLSe-0WQWlUntqC2JjWgdRXEh9yiWQ8LyMjjTsTiZ2etWqeinvg/viewform?usp=sf_link",
   "latitude": "48.862993",
   "longitude": " 2.814889",
   "event_type_name": "Plastic attacks",
   "start_time": "",
   "start_dt": "2019-24-05",
   "capacity": "",
   "id": "",
   "start_day": "",
   "venue_zip": "",
   "is_official": "1",
   "id_obfuscated": "gpg5bt"
 },
 {
   "name": "Plastic attacks - Mandelieu",
   "location": "Mandelieu",
   "url": "https://docs.google.com/forms/d/e/1FAIpQLSe-0WQWlUntqC2JjWgdRXEh9yiWQ8LyMjjTsTiZ2etWqeinvg/viewform?usp=sf_link",
   "latitude": "43.546232",
   "longitude": " 6.938308999999999",
   "event_type_name": "Plastic attacks",
   "start_time": "",
   "start_dt": "2019-24-05",
   "capacity": "",
   "id": "",
   "start_day": "",
   "venue_zip": "",
   "is_official": "1",
   "id_obfuscated": "gpg5bt"
 },
 {
   "name": "Plastic attacks - Mantes La Jolie",
   "location": "Mantes La Jolie",
   "url": "https://docs.google.com/forms/d/e/1FAIpQLSe-0WQWlUntqC2JjWgdRXEh9yiWQ8LyMjjTsTiZ2etWqeinvg/viewform?usp=sf_link",
   "latitude": "48.989323",
   "longitude": " 1.714958",
   "event_type_name": "Plastic attacks",
   "start_time": "",
   "start_dt": "2019-24-05",
   "capacity": "",
   "id": "",
   "start_day": "",
   "venue_zip": "",
   "is_official": "1",
   "id_obfuscated": "gpg5bt"
 },
 {
   "name": "Plastic attacks - Marseille",
   "location": "Marseille",
   "url": "https://docs.google.com/forms/d/e/1FAIpQLSe-0WQWlUntqC2JjWgdRXEh9yiWQ8LyMjjTsTiZ2etWqeinvg/viewform?usp=sf_link",
   "latitude": "43.296482",
   "longitude": " 5.36978",
   "event_type_name": "Plastic attacks",
   "start_time": "",
   "start_dt": "2019-24-05",
   "capacity": "",
   "id": "",
   "start_day": "",
   "venue_zip": "",
   "is_official": "1",
   "id_obfuscated": "gpg5bt"
 },
 {
   "name": "Plastic attacks - Martigues",
   "location": "Martigues",
   "url": "https://docs.google.com/forms/d/e/1FAIpQLSe-0WQWlUntqC2JjWgdRXEh9yiWQ8LyMjjTsTiZ2etWqeinvg/viewform?usp=sf_link",
   "latitude": "43.404811",
   "longitude": " 5.053728",
   "event_type_name": "Plastic attacks",
   "start_time": "",
   "start_dt": "2019-24-05",
   "capacity": "",
   "id": "",
   "start_day": "",
   "venue_zip": "",
   "is_official": "1",
   "id_obfuscated": "gpg5bt"
 },
 {
   "name": "Plastic attacks - Martinique",
   "location": "Martinique",
   "url": "https://docs.google.com/forms/d/e/1FAIpQLSe-0WQWlUntqC2JjWgdRXEh9yiWQ8LyMjjTsTiZ2etWqeinvg/viewform?usp=sf_link",
   "latitude": "14.641528",
   "longitude": " -61.024174",
   "event_type_name": "Plastic attacks",
   "start_time": "",
   "start_dt": "2019-24-05",
   "capacity": "",
   "id": "",
   "start_day": "",
   "venue_zip": "",
   "is_official": "1",
   "id_obfuscated": "gpg5bt"
 },
 {
   "name": "Plastic attacks - Meaux",
   "location": "Meaux",
   "url": "https://docs.google.com/forms/d/e/1FAIpQLSe-0WQWlUntqC2JjWgdRXEh9yiWQ8LyMjjTsTiZ2etWqeinvg/viewform?usp=sf_link",
   "latitude": "48.9562018",
   "longitude": " 2.8884657",
   "event_type_name": "Plastic attacks",
   "start_time": "",
   "start_dt": "2019-24-05",
   "capacity": "",
   "id": "",
   "start_day": "",
   "venue_zip": "",
   "is_official": "1",
   "id_obfuscated": "gpg5bt"
 },
 {
   "name": "Plastic attacks - Melun",
   "location": "Melun",
   "url": "https://docs.google.com/forms/d/e/1FAIpQLSe-0WQWlUntqC2JjWgdRXEh9yiWQ8LyMjjTsTiZ2etWqeinvg/viewform?usp=sf_link",
   "latitude": "48.542105",
   "longitude": "1699872",
   "event_type_name": "Plastic attacks",
   "start_time": "",
   "start_dt": "2019-24-05",
   "capacity": "",
   "id": "",
   "start_day": "",
   "venue_zip": "",
   "is_official": "1",
   "id_obfuscated": "gpg5bt"
 },
 {
   "name": "Plastic attacks - Mende",
   "location": "Mende",
   "url": "https://docs.google.com/forms/d/e/1FAIpQLSe-0WQWlUntqC2JjWgdRXEh9yiWQ8LyMjjTsTiZ2etWqeinvg/viewform?usp=sf_link",
   "latitude": "44.517611",
   "longitude": " 3.501873",
   "event_type_name": "Plastic attacks",
   "start_time": "",
   "start_dt": "2019-24-05",
   "capacity": "",
   "id": "",
   "start_day": "",
   "venue_zip": "",
   "is_official": "1",
   "id_obfuscated": "gpg5bt"
 },
 {
   "name": "Plastic attacks - Metz",
   "location": "Metz",
   "url": "https://docs.google.com/forms/d/e/1FAIpQLSe-0WQWlUntqC2JjWgdRXEh9yiWQ8LyMjjTsTiZ2etWqeinvg/viewform?usp=sf_link",
   "latitude": "49.1193089",
   "longitude": " 6.175715599999999",
   "event_type_name": "Plastic attacks",
   "start_time": "",
   "start_dt": "2019-24-05",
   "capacity": "",
   "id": "",
   "start_day": "",
   "venue_zip": "",
   "is_official": "1",
   "id_obfuscated": "gpg5bt"
 },
 {
   "name": "Plastic attacks - Meudon",
   "location": "Meudon",
   "url": "https://docs.google.com/forms/d/e/1FAIpQLSe-0WQWlUntqC2JjWgdRXEh9yiWQ8LyMjjTsTiZ2etWqeinvg/viewform?usp=sf_link",
   "latitude": "48.812995",
   "longitude": " 2.23847",
   "event_type_name": "Plastic attacks",
   "start_time": "",
   "start_dt": "2019-24-05",
   "capacity": "",
   "id": "",
   "start_day": "",
   "venue_zip": "",
   "is_official": "1",
   "id_obfuscated": "gpg5bt"
 },
 {
   "name": "Plastic attacks - Mexico",
   "location": "Mexico",
   "url": "https://docs.google.com/forms/d/e/1FAIpQLSe-0WQWlUntqC2JjWgdRXEh9yiWQ8LyMjjTsTiZ2etWqeinvg/viewform?usp=sf_link",
   "latitude": "21.001892",
   "longitude": " -89.612797",
   "event_type_name": "Plastic attacks",
   "start_time": "",
   "start_dt": "2019-24-05",
   "capacity": "",
   "id": "",
   "start_day": "",
   "venue_zip": "",
   "is_official": "1",
   "id_obfuscated": "gpg5bt"
 },
 {
   "name": "Plastic attacks - Montargis",
   "location": "Montargis",
   "url": "https://docs.google.com/forms/d/e/1FAIpQLSe-0WQWlUntqC2JjWgdRXEh9yiWQ8LyMjjTsTiZ2etWqeinvg/viewform?usp=sf_link",
   "latitude": "47.99729",
   "longitude": " 2.736291",
   "event_type_name": "Plastic attacks",
   "start_time": "",
   "start_dt": "2019-24-05",
   "capacity": "",
   "id": "",
   "start_day": "",
   "venue_zip": "",
   "is_official": "1",
   "id_obfuscated": "gpg5bt"
 },
 {
   "name": "Plastic attacks - Montauban",
   "location": "Montauban",
   "url": "https://docs.google.com/forms/d/e/1FAIpQLSe-0WQWlUntqC2JjWgdRXEh9yiWQ8LyMjjTsTiZ2etWqeinvg/viewform?usp=sf_link",
   "latitude": "44.0221252",
   "longitude": " 1.3529599",
   "event_type_name": "Plastic attacks",
   "start_time": "",
   "start_dt": "2019-24-05",
   "capacity": "",
   "id": "",
   "start_day": "",
   "venue_zip": "",
   "is_official": "1",
   "id_obfuscated": "gpg5bt"
 },
 {
   "name": "Plastic attacks - Montauroux",
   "location": "Montauroux",
   "url": "https://docs.google.com/forms/d/e/1FAIpQLSe-0WQWlUntqC2JjWgdRXEh9yiWQ8LyMjjTsTiZ2etWqeinvg/viewform?usp=sf_link",
   "latitude": "43.6187759",
   "longitude": " 6.764278",
   "event_type_name": "Plastic attacks",
   "start_time": "",
   "start_dt": "2019-24-05",
   "capacity": "",
   "id": "",
   "start_day": "",
   "venue_zip": "",
   "is_official": "1",
   "id_obfuscated": "gpg5bt"
 },
 {
   "name": "Plastic attacks - Montereau",
   "location": "Montereau",
   "url": "https://docs.google.com/forms/d/e/1FAIpQLSe-0WQWlUntqC2JjWgdRXEh9yiWQ8LyMjjTsTiZ2etWqeinvg/viewform?usp=sf_link",
   "latitude": "48.38473399999999",
   "longitude": " 2.956193",
   "event_type_name": "Plastic attacks",
   "start_time": "",
   "start_dt": "2019-24-05",
   "capacity": "",
   "id": "",
   "start_day": "",
   "venue_zip": "",
   "is_official": "1",
   "id_obfuscated": "gpg5bt"
 },
 {
   "name": "Plastic attacks - Montpellier",
   "location": "Montpellier",
   "url": "https://docs.google.com/forms/d/e/1FAIpQLSe-0WQWlUntqC2JjWgdRXEh9yiWQ8LyMjjTsTiZ2etWqeinvg/viewform?usp=sf_link",
   "latitude": "43.610769",
   "longitude": " 3.876716",
   "event_type_name": "Plastic attacks",
   "start_time": "",
   "start_dt": "2019-24-05",
   "capacity": "",
   "id": "",
   "start_day": "",
   "venue_zip": "",
   "is_official": "1",
   "id_obfuscated": "gpg5bt"
 },
 {
   "name": "Plastic attacks - Montreuil",
   "location": "Montreuil",
   "url": "https://docs.google.com/forms/d/e/1FAIpQLSe-0WQWlUntqC2JjWgdRXEh9yiWQ8LyMjjTsTiZ2etWqeinvg/viewform?usp=sf_link",
   "latitude": "48.863812",
   "longitude": " 2.448451",
   "event_type_name": "Plastic attacks",
   "start_time": "",
   "start_dt": "2019-24-05",
   "capacity": "",
   "id": "",
   "start_day": "",
   "venue_zip": "",
   "is_official": "1",
   "id_obfuscated": "gpg5bt"
 },
 {
   "name": "Plastic attacks - Montrouge",
   "location": "Montrouge",
   "url": "https://docs.google.com/forms/d/e/1FAIpQLSe-0WQWlUntqC2JjWgdRXEh9yiWQ8LyMjjTsTiZ2etWqeinvg/viewform?usp=sf_link",
   "latitude": "48.816363",
   "longitude": " 2.317384",
   "event_type_name": "Plastic attacks",
   "start_time": "",
   "start_dt": "2019-24-05",
   "capacity": "",
   "id": "",
   "start_day": "",
   "venue_zip": "",
   "is_official": "1",
   "id_obfuscated": "gpg5bt"
 },
 {
   "name": "Plastic attacks - Morez",
   "location": "Morez",
   "url": "https://docs.google.com/forms/d/e/1FAIpQLSe-0WQWlUntqC2JjWgdRXEh9yiWQ8LyMjjTsTiZ2etWqeinvg/viewform?usp=sf_link",
   "latitude": "46.5239422",
   "longitude": " 6.0223705",
   "event_type_name": "Plastic attacks",
   "start_time": "",
   "start_dt": "2019-24-05",
   "capacity": "",
   "id": "",
   "start_day": "",
   "venue_zip": "",
   "is_official": "1",
   "id_obfuscated": "gpg5bt"
 },
 {
   "name": "Plastic attacks - Morlaix",
   "location": "Morlaix",
   "url": "https://docs.google.com/forms/d/e/1FAIpQLSe-0WQWlUntqC2JjWgdRXEh9yiWQ8LyMjjTsTiZ2etWqeinvg/viewform?usp=sf_link",
   "latitude": "48.577613",
   "longitude": " -3.828228",
   "event_type_name": "Plastic attacks",
   "start_time": "",
   "start_dt": "2019-24-05",
   "capacity": "",
   "id": "",
   "start_day": "",
   "venue_zip": "",
   "is_official": "1",
   "id_obfuscated": "gpg5bt"
 },
 {
   "name": "Plastic attacks - Mougins",
   "location": "Mougins",
   "url": "https://docs.google.com/forms/d/e/1FAIpQLSe-0WQWlUntqC2JjWgdRXEh9yiWQ8LyMjjTsTiZ2etWqeinvg/viewform?usp=sf_link",
   "latitude": "43.6023319",
   "longitude": " 7.006491",
   "event_type_name": "Plastic attacks",
   "start_time": "",
   "start_dt": "2019-24-05",
   "capacity": "",
   "id": "",
   "start_day": "",
   "venue_zip": "",
   "is_official": "1",
   "id_obfuscated": "gpg5bt"
 },
 {
   "name": "Plastic attacks - Moulins",
   "location": "Moulins",
   "url": "https://docs.google.com/forms/d/e/1FAIpQLSe-0WQWlUntqC2JjWgdRXEh9yiWQ8LyMjjTsTiZ2etWqeinvg/viewform?usp=sf_link",
   "latitude": "46.568059",
   "longitude": " 3.334417",
   "event_type_name": "Plastic attacks",
   "start_time": "",
   "start_dt": "2019-24-05",
   "capacity": "",
   "id": "",
   "start_day": "",
   "venue_zip": "",
   "is_official": "1",
   "id_obfuscated": "gpg5bt"
 },
 {
   "name": "Plastic attacks - Mours",
   "location": "Mours",
   "url": "https://docs.google.com/forms/d/e/1FAIpQLSe-0WQWlUntqC2JjWgdRXEh9yiWQ8LyMjjTsTiZ2etWqeinvg/viewform?usp=sf_link",
   "latitude": "49.131806",
   "longitude": " 2.264505",
   "event_type_name": "Plastic attacks",
   "start_time": "",
   "start_dt": "2019-24-05",
   "capacity": "",
   "id": "",
   "start_day": "",
   "venue_zip": "",
   "is_official": "1",
   "id_obfuscated": "gpg5bt"
 },
 {
   "name": "Plastic attacks - Mulhouse",
   "location": "Mulhouse",
   "url": "https://docs.google.com/forms/d/e/1FAIpQLSe-0WQWlUntqC2JjWgdRXEh9yiWQ8LyMjjTsTiZ2etWqeinvg/viewform?usp=sf_link",
   "latitude": "47.750839",
   "longitude": " 7.335888",
   "event_type_name": "Plastic attacks",
   "start_time": "",
   "start_dt": "2019-24-05",
   "capacity": "",
   "id": "",
   "start_day": "",
   "venue_zip": "",
   "is_official": "1",
   "id_obfuscated": "gpg5bt"
 },
 {
   "name": "Plastic attacks - Nancy",
   "location": "Nancy",
   "url": "https://docs.google.com/forms/d/e/1FAIpQLSe-0WQWlUntqC2JjWgdRXEh9yiWQ8LyMjjTsTiZ2etWqeinvg/viewform?usp=sf_link",
   "latitude": "48.692054",
   "longitude": " 6.184417",
   "event_type_name": "Plastic attacks",
   "start_time": "",
   "start_dt": "2019-24-05",
   "capacity": "",
   "id": "",
   "start_day": "",
   "venue_zip": "",
   "is_official": "1",
   "id_obfuscated": "gpg5bt"
 },
 {
   "name": "Plastic attacks - Nanterre",
   "location": "Nanterre",
   "url": "https://docs.google.com/forms/d/e/1FAIpQLSe-0WQWlUntqC2JjWgdRXEh9yiWQ8LyMjjTsTiZ2etWqeinvg/viewform?usp=sf_link",
   "latitude": "48.892423",
   "longitude": " 2.215331",
   "event_type_name": "Plastic attacks",
   "start_time": "",
   "start_dt": "2019-24-05",
   "capacity": "",
   "id": "",
   "start_day": "",
   "venue_zip": "",
   "is_official": "1",
   "id_obfuscated": "gpg5bt"
 },
 {
   "name": "Plastic attacks - Nantes",
   "location": "Nantes",
   "url": "https://docs.google.com/forms/d/e/1FAIpQLSe-0WQWlUntqC2JjWgdRXEh9yiWQ8LyMjjTsTiZ2etWqeinvg/viewform?usp=sf_link",
   "latitude": "47.218371",
   "longitude": " -1.553621",
   "event_type_name": "Plastic attacks",
   "start_time": "",
   "start_dt": "2019-24-05",
   "capacity": "",
   "id": "",
   "start_day": "",
   "venue_zip": "",
   "is_official": "1",
   "id_obfuscated": "gpg5bt"
 },
 {
   "name": "Plastic attacks - Nice",
   "location": "Nice",
   "url": "https://docs.google.com/forms/d/e/1FAIpQLSe-0WQWlUntqC2JjWgdRXEh9yiWQ8LyMjjTsTiZ2etWqeinvg/viewform?usp=sf_link",
   "latitude": "43.7101728",
   "longitude": " 7.261953200000001",
   "event_type_name": "Plastic attacks",
   "start_time": "",
   "start_dt": "2019-24-05",
   "capacity": "",
   "id": "",
   "start_day": "",
   "venue_zip": "",
   "is_official": "1",
   "id_obfuscated": "gpg5bt"
 },
 {
   "name": "Plastic attacks - Nîmes",
   "location": "Nîmes",
   "url": "https://docs.google.com/forms/d/e/1FAIpQLSe-0WQWlUntqC2JjWgdRXEh9yiWQ8LyMjjTsTiZ2etWqeinvg/viewform?usp=sf_link",
   "latitude": "43.836699",
   "longitude": " 4.360054",
   "event_type_name": "Plastic attacks",
   "start_time": "",
   "start_dt": "2019-24-05",
   "capacity": "",
   "id": "",
   "start_day": "",
   "venue_zip": "",
   "is_official": "1",
   "id_obfuscated": "gpg5bt"
 },
 {
   "name": "Plastic attacks - Nogent Sur Marne",
   "location": "Nogent Sur Marne",
   "url": "https://docs.google.com/forms/d/e/1FAIpQLSe-0WQWlUntqC2JjWgdRXEh9yiWQ8LyMjjTsTiZ2etWqeinvg/viewform?usp=sf_link",
   "latitude": "48.83763099999999",
   "longitude": " 2.481699",
   "event_type_name": "Plastic attacks",
   "start_time": "",
   "start_dt": "2019-24-05",
   "capacity": "",
   "id": "",
   "start_day": "",
   "venue_zip": "",
   "is_official": "1",
   "id_obfuscated": "gpg5bt"
 },
 {
   "name": "Plastic attacks - Nouméa",
   "location": "Nouméa",
   "url": "https://docs.google.com/forms/d/e/1FAIpQLSe-0WQWlUntqC2JjWgdRXEh9yiWQ8LyMjjTsTiZ2etWqeinvg/viewform?usp=sf_link",
   "latitude": "-22.2710727",
   "longitude": " 166.4416459",
   "event_type_name": "Plastic attacks",
   "start_time": "",
   "start_dt": "2019-24-05",
   "capacity": "",
   "id": "",
   "start_day": "",
   "venue_zip": "",
   "is_official": "1",
   "id_obfuscated": "gpg5bt"
 },
 {
   "name": "Plastic attacks - Orange",
   "location": "Orange",
   "url": "https://docs.google.com/forms/d/e/1FAIpQLSe-0WQWlUntqC2JjWgdRXEh9yiWQ8LyMjjTsTiZ2etWqeinvg/viewform?usp=sf_link",
   "latitude": "44.1380989",
   "longitude": " 4.807511",
   "event_type_name": "Plastic attacks",
   "start_time": "",
   "start_dt": "2019-24-05",
   "capacity": "",
   "id": "",
   "start_day": "",
   "venue_zip": "",
   "is_official": "1",
   "id_obfuscated": "gpg5bt"
 },
 {
   "name": "Plastic attacks - Orléans",
   "location": "Orléans",
   "url": "https://docs.google.com/forms/d/e/1FAIpQLSe-0WQWlUntqC2JjWgdRXEh9yiWQ8LyMjjTsTiZ2etWqeinvg/viewform?usp=sf_link",
   "latitude": "47.902964",
   "longitude": " 1.909251",
   "event_type_name": "Plastic attacks",
   "start_time": "",
   "start_dt": "2019-24-05",
   "capacity": "",
   "id": "",
   "start_day": "",
   "venue_zip": "",
   "is_official": "1",
   "id_obfuscated": "gpg5bt"
 },
 {
   "name": "Plastic attacks - Orthez",
   "location": "Orthez",
   "url": "https://docs.google.com/forms/d/e/1FAIpQLSe-0WQWlUntqC2JjWgdRXEh9yiWQ8LyMjjTsTiZ2etWqeinvg/viewform?usp=sf_link",
   "latitude": "43.48755999999999",
   "longitude": " -0.7739279",
   "event_type_name": "Plastic attacks",
   "start_time": "",
   "start_dt": "2019-24-05",
   "capacity": "",
   "id": "",
   "start_day": "",
   "venue_zip": "",
   "is_official": "1",
   "id_obfuscated": "gpg5bt"
 },
 {
   "name": "Plastic attacks - Palaiseau",
   "location": "Palaiseau",
   "url": "https://docs.google.com/forms/d/e/1FAIpQLSe-0WQWlUntqC2JjWgdRXEh9yiWQ8LyMjjTsTiZ2etWqeinvg/viewform?usp=sf_link",
   "latitude": "48.714509",
   "longitude": " 2.245748",
   "event_type_name": "Plastic attacks",
   "start_time": "",
   "start_dt": "2019-24-05",
   "capacity": "",
   "id": "",
   "start_day": "",
   "venue_zip": "",
   "is_official": "1",
   "id_obfuscated": "gpg5bt"
 },
 {
   "name": "Plastic attacks - Paris",
   "location": "Paris",
   "url": "https://docs.google.com/forms/d/e/1FAIpQLSe-0WQWlUntqC2JjWgdRXEh9yiWQ8LyMjjTsTiZ2etWqeinvg/viewform?usp=sf_link",
   "latitude": "48.856614",
   "longitude": " 2.3522219",
   "event_type_name": "Plastic attacks",
   "start_time": "",
   "start_dt": "2019-24-05",
   "capacity": "",
   "id": "",
   "start_day": "",
   "venue_zip": "",
   "is_official": "1",
   "id_obfuscated": "gpg5bt"
 },
 {
   "name": "Plastic attacks - Paris 10",
   "location": "Paris 10",
   "url": "https://docs.google.com/forms/d/e/1FAIpQLSe-0WQWlUntqC2JjWgdRXEh9yiWQ8LyMjjTsTiZ2etWqeinvg/viewform?usp=sf_link",
   "latitude": "48.8785618",
   "longitude": " 2.3603689",
   "event_type_name": "Plastic attacks",
   "start_time": "",
   "start_dt": "2019-24-05",
   "capacity": "",
   "id": "",
   "start_day": "",
   "venue_zip": "",
   "is_official": "1",
   "id_obfuscated": "gpg5bt"
 },
 {
   "name": "Plastic attacks - Paris 10Ème",
   "location": "Paris 10Ème",
   "url": "https://docs.google.com/forms/d/e/1FAIpQLSe-0WQWlUntqC2JjWgdRXEh9yiWQ8LyMjjTsTiZ2etWqeinvg/viewform?usp=sf_link",
   "latitude": "48.8785618",
   "longitude": " 2.3603689",
   "event_type_name": "Plastic attacks",
   "start_time": "",
   "start_dt": "2019-24-05",
   "capacity": "",
   "id": "",
   "start_day": "",
   "venue_zip": "",
   "is_official": "1",
   "id_obfuscated": "gpg5bt"
 },
 {
   "name": "Plastic attacks - Paris 12Ème",
   "location": "Paris 12Ème",
   "url": "https://docs.google.com/forms/d/e/1FAIpQLSe-0WQWlUntqC2JjWgdRXEh9yiWQ8LyMjjTsTiZ2etWqeinvg/viewform?usp=sf_link",
   "latitude": "48.8293647",
   "longitude": " 2.4265406",
   "event_type_name": "Plastic attacks",
   "start_time": "",
   "start_dt": "2019-24-05",
   "capacity": "",
   "id": "",
   "start_day": "",
   "venue_zip": "",
   "is_official": "1",
   "id_obfuscated": "gpg5bt"
 },
 {
   "name": "Plastic attacks - Paris 13",
   "location": "Paris 13",
   "url": "https://docs.google.com/forms/d/e/1FAIpQLSe-0WQWlUntqC2JjWgdRXEh9yiWQ8LyMjjTsTiZ2etWqeinvg/viewform?usp=sf_link",
   "latitude": "48.830759",
   "longitude": " 2.359204",
   "event_type_name": "Plastic attacks",
   "start_time": "",
   "start_dt": "2019-24-05",
   "capacity": "",
   "id": "",
   "start_day": "",
   "venue_zip": "",
   "is_official": "1",
   "id_obfuscated": "gpg5bt"
 },
 {
   "name": "Plastic attacks - Paris 13 Kremlin Bicêtre",
   "location": "Paris 13 Kremlin Bicêtre",
   "url": "https://docs.google.com/forms/d/e/1FAIpQLSe-0WQWlUntqC2JjWgdRXEh9yiWQ8LyMjjTsTiZ2etWqeinvg/viewform?usp=sf_link",
   "latitude": "48.810108",
   "longitude": " 2.356972",
   "event_type_name": "Plastic attacks",
   "start_time": "",
   "start_dt": "2019-24-05",
   "capacity": "",
   "id": "",
   "start_day": "",
   "venue_zip": "",
   "is_official": "1",
   "id_obfuscated": "gpg5bt"
 },
 {
   "name": "Plastic attacks - Paris 14",
   "location": "Paris 14",
   "url": "https://docs.google.com/forms/d/e/1FAIpQLSe-0WQWlUntqC2JjWgdRXEh9yiWQ8LyMjjTsTiZ2etWqeinvg/viewform?usp=sf_link",
   "latitude": "48.8314408",
   "longitude": " 2.3255684",
   "event_type_name": "Plastic attacks",
   "start_time": "",
   "start_dt": "2019-24-05",
   "capacity": "",
   "id": "",
   "start_day": "",
   "venue_zip": "",
   "is_official": "1",
   "id_obfuscated": "gpg5bt"
 },
 {
   "name": "Plastic attacks - Paris 16Ème",
   "location": "Paris 16Ème",
   "url": "https://docs.google.com/forms/d/e/1FAIpQLSe-0WQWlUntqC2JjWgdRXEh9yiWQ8LyMjjTsTiZ2etWqeinvg/viewform?usp=sf_link",
   "latitude": "48.8585799",
   "longitude": " 2.2847017",
   "event_type_name": "Plastic attacks",
   "start_time": "",
   "start_dt": "2019-24-05",
   "capacity": "",
   "id": "",
   "start_day": "",
   "venue_zip": "",
   "is_official": "1",
   "id_obfuscated": "gpg5bt"
 },
 {
   "name": "Plastic attacks - Paris 17",
   "location": "Paris 17",
   "url": "https://docs.google.com/forms/d/e/1FAIpQLSe-0WQWlUntqC2JjWgdRXEh9yiWQ8LyMjjTsTiZ2etWqeinvg/viewform?usp=sf_link",
   "latitude": "48.891986",
   "longitude": " 2.319287",
   "event_type_name": "Plastic attacks",
   "start_time": "",
   "start_dt": "2019-24-05",
   "capacity": "",
   "id": "",
   "start_day": "",
   "venue_zip": "",
   "is_official": "1",
   "id_obfuscated": "gpg5bt"
 },
 {
   "name": "Plastic attacks - Paris 18",
   "location": "Paris 18",
   "url": "https://docs.google.com/forms/d/e/1FAIpQLSe-0WQWlUntqC2JjWgdRXEh9yiWQ8LyMjjTsTiZ2etWqeinvg/viewform?usp=sf_link",
   "latitude": "48.891305",
   "longitude": " 2.3529867",
   "event_type_name": "Plastic attacks",
   "start_time": "",
   "start_dt": "2019-24-05",
   "capacity": "",
   "id": "",
   "start_day": "",
   "venue_zip": "",
   "is_official": "1",
   "id_obfuscated": "gpg5bt"
 },
 {
   "name": "Plastic attacks - Paris 19",
   "location": "Paris 19",
   "url": "https://docs.google.com/forms/d/e/1FAIpQLSe-0WQWlUntqC2JjWgdRXEh9yiWQ8LyMjjTsTiZ2etWqeinvg/viewform?usp=sf_link",
   "latitude": "48.88237609999999",
   "longitude": " 2.3822917",
   "event_type_name": "Plastic attacks",
   "start_time": "",
   "start_dt": "2019-24-05",
   "capacity": "",
   "id": "",
   "start_day": "",
   "venue_zip": "",
   "is_official": "1",
   "id_obfuscated": "gpg5bt"
 },
 {
   "name": "Plastic attacks - Paris 20",
   "location": "Paris 20",
   "url": "https://docs.google.com/forms/d/e/1FAIpQLSe-0WQWlUntqC2JjWgdRXEh9yiWQ8LyMjjTsTiZ2etWqeinvg/viewform?usp=sf_link",
   "latitude": "48.8599825",
   "longitude": " 2.4066412",
   "event_type_name": "Plastic attacks",
   "start_time": "",
   "start_dt": "2019-24-05",
   "capacity": "",
   "id": "",
   "start_day": "",
   "venue_zip": "",
   "is_official": "1",
   "id_obfuscated": "gpg5bt"
 },
 {
   "name": "Plastic attacks - Paris 2Ème Ou (92) La Défense",
   "location": "Paris 2Ème Ou (92) La Défense",
   "url": "https://docs.google.com/forms/d/e/1FAIpQLSe-0WQWlUntqC2JjWgdRXEh9yiWQ8LyMjjTsTiZ2etWqeinvg/viewform?usp=sf_link",
   "latitude": "48.8897359",
   "longitude": " 2.2418428",
   "event_type_name": "Plastic attacks",
   "start_time": "",
   "start_dt": "2019-24-05",
   "capacity": "",
   "id": "",
   "start_day": "",
   "venue_zip": "",
   "is_official": "1",
   "id_obfuscated": "gpg5bt"
 },
 {
   "name": "Plastic attacks - Paris 4Ème",
   "location": "Paris 4Ème",
   "url": "https://docs.google.com/forms/d/e/1FAIpQLSe-0WQWlUntqC2JjWgdRXEh9yiWQ8LyMjjTsTiZ2etWqeinvg/viewform?usp=sf_link",
   "latitude": "48.8534275",
   "longitude": " 2.3582788",
   "event_type_name": "Plastic attacks",
   "start_time": "",
   "start_dt": "2019-24-05",
   "capacity": "",
   "id": "",
   "start_day": "",
   "venue_zip": "",
   "is_official": "1",
   "id_obfuscated": "gpg5bt"
 },
 {
   "name": "Plastic attacks - Paris 5",
   "location": "Paris 5",
   "url": "https://docs.google.com/forms/d/e/1FAIpQLSe-0WQWlUntqC2JjWgdRXEh9yiWQ8LyMjjTsTiZ2etWqeinvg/viewform?usp=sf_link",
   "latitude": "48.8434912",
   "longitude": " 2.3518339",
   "event_type_name": "Plastic attacks",
   "start_time": "",
   "start_dt": "2019-24-05",
   "capacity": "",
   "id": "",
   "start_day": "",
   "venue_zip": "",
   "is_official": "1",
   "id_obfuscated": "gpg5bt"
 },
 {
   "name": "Plastic attacks - Pantin",
   "location": "Pantin",
   "url": "https://docs.google.com/forms/d/e/1FAIpQLSe-0WQWlUntqC2JjWgdRXEh9yiWQ8LyMjjTsTiZ2etWqeinvg/viewform?usp=sf_link",
   "latitude": "48.894533",
   "longitude": " 2.40963",
   "event_type_name": "Plastic attacks",
   "start_time": "",
   "start_dt": "2019-24-05",
   "capacity": "",
   "id": "",
   "start_day": "",
   "venue_zip": "",
   "is_official": "1",
   "id_obfuscated": "gpg5bt"
 },
 {
   "name": "Plastic attacks - Vitry Sur Seine",
   "location": "Vitry Sur Seine",
   "url": "https://docs.google.com/forms/d/e/1FAIpQLSe-0WQWlUntqC2JjWgdRXEh9yiWQ8LyMjjTsTiZ2etWqeinvg/viewform?usp=sf_link",
   "latitude": "48.792001",
   "longitude": " 2.39851",
   "event_type_name": "Plastic attacks",
   "start_time": "",
   "start_dt": "2019-24-05",
   "capacity": "",
   "id": "",
   "start_day": "",
   "venue_zip": "",
   "is_official": "1",
   "id_obfuscated": "gpg5bt"
 },
 {
   "name": "Plastic attacks - Pau",
   "location": "Pau",
   "url": "https://docs.google.com/forms/d/e/1FAIpQLSe-0WQWlUntqC2JjWgdRXEh9yiWQ8LyMjjTsTiZ2etWqeinvg/viewform?usp=sf_link",
   "latitude": "43.2951",
   "longitude": " -0.370797",
   "event_type_name": "Plastic attacks",
   "start_time": "",
   "start_dt": "2019-24-05",
   "capacity": "",
   "id": "",
   "start_day": "",
   "venue_zip": "",
   "is_official": "1",
   "id_obfuscated": "gpg5bt"
 },
 {
   "name": "Plastic attacks - Périgueux",
   "location": "Périgueux",
   "url": "https://docs.google.com/forms/d/e/1FAIpQLSe-0WQWlUntqC2JjWgdRXEh9yiWQ8LyMjjTsTiZ2etWqeinvg/viewform?usp=sf_link",
   "latitude": "45.184029",
   "longitude": " 0.7211149",
   "event_type_name": "Plastic attacks",
   "start_time": "",
   "start_dt": "2019-24-05",
   "capacity": "",
   "id": "",
   "start_day": "",
   "venue_zip": "",
   "is_official": "1",
   "id_obfuscated": "gpg5bt"
 },
 {
   "name": "Plastic attacks - Perpignan",
   "location": "Perpignan",
   "url": "https://docs.google.com/forms/d/e/1FAIpQLSe-0WQWlUntqC2JjWgdRXEh9yiWQ8LyMjjTsTiZ2etWqeinvg/viewform?usp=sf_link",
   "latitude": "42.6886591",
   "longitude": " 2.8948332",
   "event_type_name": "Plastic attacks",
   "start_time": "",
   "start_dt": "2019-24-05",
   "capacity": "",
   "id": "",
   "start_day": "",
   "venue_zip": "",
   "is_official": "1",
   "id_obfuscated": "gpg5bt"
 },
 {
   "name": "Plastic attacks - Pezenas",
   "location": "Pezenas",
   "url": "https://docs.google.com/forms/d/e/1FAIpQLSe-0WQWlUntqC2JjWgdRXEh9yiWQ8LyMjjTsTiZ2etWqeinvg/viewform?usp=sf_link",
   "latitude": "43.461531",
   "longitude": " 3.423193",
   "event_type_name": "Plastic attacks",
   "start_time": "",
   "start_dt": "2019-24-05",
   "capacity": "",
   "id": "",
   "start_day": "",
   "venue_zip": "",
   "is_official": "1",
   "id_obfuscated": "gpg5bt"
 },
 {
   "name": "Plastic attacks - Pithiviers",
   "location": "Pithiviers",
   "url": "https://docs.google.com/forms/d/e/1FAIpQLSe-0WQWlUntqC2JjWgdRXEh9yiWQ8LyMjjTsTiZ2etWqeinvg/viewform?usp=sf_link",
   "latitude": "48.173423",
   "longitude": " 2.255849",
   "event_type_name": "Plastic attacks",
   "start_time": "",
   "start_dt": "2019-24-05",
   "capacity": "",
   "id": "",
   "start_day": "",
   "venue_zip": "",
   "is_official": "1",
   "id_obfuscated": "gpg5bt"
 },
 {
   "name": "Plastic attacks - Poitiers",
   "location": "Poitiers",
   "url": "https://docs.google.com/forms/d/e/1FAIpQLSe-0WQWlUntqC2JjWgdRXEh9yiWQ8LyMjjTsTiZ2etWqeinvg/viewform?usp=sf_link",
   "latitude": "46.58022400000001",
   "longitude": " 0.340375",
   "event_type_name": "Plastic attacks",
   "start_time": "",
   "start_dt": "2019-24-05",
   "capacity": "",
   "id": "",
   "start_day": "",
   "venue_zip": "",
   "is_official": "1",
   "id_obfuscated": "gpg5bt"
 },
 {
   "name": "Plastic attacks - Pondichery",
   "location": "Pondichery",
   "url": "https://docs.google.com/forms/d/e/1FAIpQLSe-0WQWlUntqC2JjWgdRXEh9yiWQ8LyMjjTsTiZ2etWqeinvg/viewform?usp=sf_link",
   "latitude": "11.9363353",
   "longitude": " 79.8360443",
   "event_type_name": "Plastic attacks",
   "start_time": "",
   "start_dt": "2019-24-05",
   "capacity": "",
   "id": "",
   "start_day": "",
   "venue_zip": "",
   "is_official": "1",
   "id_obfuscated": "gpg5bt"
 },
 {
   "name": "Plastic attacks - Pontarlier",
   "location": "Pontarlier",
   "url": "https://docs.google.com/forms/d/e/1FAIpQLSe-0WQWlUntqC2JjWgdRXEh9yiWQ8LyMjjTsTiZ2etWqeinvg/viewform?usp=sf_link",
   "latitude": "46.9041039",
   "longitude": " 6.354241999999999",
   "event_type_name": "Plastic attacks",
   "start_time": "",
   "start_dt": "2019-24-05",
   "capacity": "",
   "id": "",
   "start_day": "",
   "venue_zip": "",
   "is_official": "1",
   "id_obfuscated": "gpg5bt"
 },
 {
   "name": "Plastic attacks - Pontoise",
   "location": "Pontoise",
   "url": "https://docs.google.com/forms/d/e/1FAIpQLSe-0WQWlUntqC2JjWgdRXEh9yiWQ8LyMjjTsTiZ2etWqeinvg/viewform?usp=sf_link",
   "latitude": "49.050966",
   "longitude": " 2.100645",
   "event_type_name": "Plastic attacks",
   "start_time": "",
   "start_dt": "2019-24-05",
   "capacity": "",
   "id": "",
   "start_day": "",
   "venue_zip": "",
   "is_official": "1",
   "id_obfuscated": "gpg5bt"
 },
 {
   "name": "Plastic attacks - Puy En Velay",
   "location": "Puy En Velay",
   "url": "https://docs.google.com/forms/d/e/1FAIpQLSe-0WQWlUntqC2JjWgdRXEh9yiWQ8LyMjjTsTiZ2etWqeinvg/viewform?usp=sf_link",
   "latitude": "45.042768",
   "longitude": " 3.882936",
   "event_type_name": "Plastic attacks",
   "start_time": "",
   "start_dt": "2019-24-05",
   "capacity": "",
   "id": "",
   "start_day": "",
   "venue_zip": "",
   "is_official": "1",
   "id_obfuscated": "gpg5bt"
 },
 {
   "name": "Plastic attacks - Québec",
   "location": "Québec",
   "url": "https://docs.google.com/forms/d/e/1FAIpQLSe-0WQWlUntqC2JjWgdRXEh9yiWQ8LyMjjTsTiZ2etWqeinvg/viewform?usp=sf_link",
   "latitude": "45.3848874",
   "longitude": " -71.969988",
   "event_type_name": "Plastic attacks",
   "start_time": "",
   "start_dt": "2019-24-05",
   "capacity": "",
   "id": "",
   "start_day": "",
   "venue_zip": "",
   "is_official": "1",
   "id_obfuscated": "gpg5bt"
 },
 {
   "name": "Plastic attacks - Quimper",
   "location": "Quimper",
   "url": "https://docs.google.com/forms/d/e/1FAIpQLSe-0WQWlUntqC2JjWgdRXEh9yiWQ8LyMjjTsTiZ2etWqeinvg/viewform?usp=sf_link",
   "latitude": "47.997542",
   "longitude": " -4.097899",
   "event_type_name": "Plastic attacks",
   "start_time": "",
   "start_dt": "2019-24-05",
   "capacity": "",
   "id": "",
   "start_day": "",
   "venue_zip": "",
   "is_official": "1",
   "id_obfuscated": "gpg5bt"
 },
 {
   "name": "Plastic attacks - Rabbat",
   "location": "Rabbat",
   "url": "https://docs.google.com/forms/d/e/1FAIpQLSe-0WQWlUntqC2JjWgdRXEh9yiWQ8LyMjjTsTiZ2etWqeinvg/viewform?usp=sf_link",
   "latitude": "42.855767",
   "longitude": " 1.5532999",
   "event_type_name": "Plastic attacks",
   "start_time": "",
   "start_dt": "2019-24-05",
   "capacity": "",
   "id": "",
   "start_day": "",
   "venue_zip": "",
   "is_official": "1",
   "id_obfuscated": "gpg5bt"
 },
 {
   "name": "Plastic attacks - Reims",
   "location": "Reims",
   "url": "https://docs.google.com/forms/d/e/1FAIpQLSe-0WQWlUntqC2JjWgdRXEh9yiWQ8LyMjjTsTiZ2etWqeinvg/viewform?usp=sf_link",
   "latitude": "49.258329",
   "longitude": " 4.031696",
   "event_type_name": "Plastic attacks",
   "start_time": "",
   "start_dt": "2019-24-05",
   "capacity": "",
   "id": "",
   "start_day": "",
   "venue_zip": "",
   "is_official": "1",
   "id_obfuscated": "gpg5bt"
 },
 {
   "name": "Plastic attacks - Rennes",
   "location": "Rennes",
   "url": "https://docs.google.com/forms/d/e/1FAIpQLSe-0WQWlUntqC2JjWgdRXEh9yiWQ8LyMjjTsTiZ2etWqeinvg/viewform?usp=sf_link",
   "latitude": "48.117266",
   "longitude": " -1.6777926",
   "event_type_name": "Plastic attacks",
   "start_time": "",
   "start_dt": "2019-24-05",
   "capacity": "",
   "id": "",
   "start_day": "",
   "venue_zip": "",
   "is_official": "1",
   "id_obfuscated": "gpg5bt"
 },
 {
   "name": "Plastic attacks - Roubaix",
   "location": "Roubaix",
   "url": "https://docs.google.com/forms/d/e/1FAIpQLSe-0WQWlUntqC2JjWgdRXEh9yiWQ8LyMjjTsTiZ2etWqeinvg/viewform?usp=sf_link",
   "latitude": "50.6927049",
   "longitude": " 3.177847",
   "event_type_name": "Plastic attacks",
   "start_time": "",
   "start_dt": "2019-24-05",
   "capacity": "",
   "id": "",
   "start_day": "",
   "venue_zip": "",
   "is_official": "1",
   "id_obfuscated": "gpg5bt"
 },
 {
   "name": "Plastic attacks - Rouen",
   "location": "Rouen",
   "url": "https://docs.google.com/forms/d/e/1FAIpQLSe-0WQWlUntqC2JjWgdRXEh9yiWQ8LyMjjTsTiZ2etWqeinvg/viewform?usp=sf_link",
   "latitude": "49.44323199999999",
   "longitude": " 1.099971",
   "event_type_name": "Plastic attacks",
   "start_time": "",
   "start_dt": "2019-24-05",
   "capacity": "",
   "id": "",
   "start_day": "",
   "venue_zip": "",
   "is_official": "1",
   "id_obfuscated": "gpg5bt"
 },
 {
   "name": "Plastic attacks - Saint Etienne",
   "location": "Saint Etienne",
   "url": "https://docs.google.com/forms/d/e/1FAIpQLSe-0WQWlUntqC2JjWgdRXEh9yiWQ8LyMjjTsTiZ2etWqeinvg/viewform?usp=sf_link",
   "latitude": "45.439695",
   "longitude": " 4.3871779",
   "event_type_name": "Plastic attacks",
   "start_time": "",
   "start_dt": "2019-24-05",
   "capacity": "",
   "id": "",
   "start_day": "",
   "venue_zip": "",
   "is_official": "1",
   "id_obfuscated": "gpg5bt"
 },
 {
   "name": "Plastic attacks - Saint Genis L'Argentière",
   "location": "Saint Genis L'Argentière",
   "url": "https://docs.google.com/forms/d/e/1FAIpQLSe-0WQWlUntqC2JjWgdRXEh9yiWQ8LyMjjTsTiZ2etWqeinvg/viewform?usp=sf_link",
   "latitude": "45.7102829",
   "longitude": " 4.49224",
   "event_type_name": "Plastic attacks",
   "start_time": "",
   "start_dt": "2019-24-05",
   "capacity": "",
   "id": "",
   "start_day": "",
   "venue_zip": "",
   "is_official": "1",
   "id_obfuscated": "gpg5bt"
 },
 {
   "name": "Plastic attacks - Saint Giron",
   "location": "Saint Giron",
   "url": "https://docs.google.com/forms/d/e/1FAIpQLSe-0WQWlUntqC2JjWgdRXEh9yiWQ8LyMjjTsTiZ2etWqeinvg/viewform?usp=sf_link",
   "latitude": "42.982876",
   "longitude": " 1.146088",
   "event_type_name": "Plastic attacks",
   "start_time": "",
   "start_dt": "2019-24-05",
   "capacity": "",
   "id": "",
   "start_day": "",
   "venue_zip": "",
   "is_official": "1",
   "id_obfuscated": "gpg5bt"
 },
 {
   "name": "Plastic attacks - Saint Lo",
   "location": "Saint Lo",
   "url": "https://docs.google.com/forms/d/e/1FAIpQLSe-0WQWlUntqC2JjWgdRXEh9yiWQ8LyMjjTsTiZ2etWqeinvg/viewform?usp=sf_link",
   "latitude": "49.1154686",
   "longitude": " -1.0828136",
   "event_type_name": "Plastic attacks",
   "start_time": "",
   "start_dt": "2019-24-05",
   "capacity": "",
   "id": "",
   "start_day": "",
   "venue_zip": "",
   "is_official": "1",
   "id_obfuscated": "gpg5bt"
 },
 {
   "name": "Plastic attacks - Saint Malo",
   "location": "Saint Malo",
   "url": "https://docs.google.com/forms/d/e/1FAIpQLSe-0WQWlUntqC2JjWgdRXEh9yiWQ8LyMjjTsTiZ2etWqeinvg/viewform?usp=sf_link",
   "latitude": "48.649337",
   "longitude": " -2.025674",
   "event_type_name": "Plastic attacks",
   "start_time": "",
   "start_dt": "2019-24-05",
   "capacity": "",
   "id": "",
   "start_day": "",
   "venue_zip": "",
   "is_official": "1",
   "id_obfuscated": "gpg5bt"
 },
 {
   "name": "Plastic attacks - Saint Nazaire",
   "location": "Saint Nazaire",
   "url": "https://docs.google.com/forms/d/e/1FAIpQLSe-0WQWlUntqC2JjWgdRXEh9yiWQ8LyMjjTsTiZ2etWqeinvg/viewform?usp=sf_link",
   "latitude": "47.2734979",
   "longitude": " -2.213848",
   "event_type_name": "Plastic attacks",
   "start_time": "",
   "start_dt": "2019-24-05",
   "capacity": "",
   "id": "",
   "start_day": "",
   "venue_zip": "",
   "is_official": "1",
   "id_obfuscated": "gpg5bt"
 },
 {
   "name": "Plastic attacks - Saint Ouen",
   "location": "Saint Ouen",
   "url": "https://docs.google.com/forms/d/e/1FAIpQLSe-0WQWlUntqC2JjWgdRXEh9yiWQ8LyMjjTsTiZ2etWqeinvg/viewform?usp=sf_link",
   "latitude": "48.911856",
   "longitude": " 2.333764",
   "event_type_name": "Plastic attacks",
   "start_time": "",
   "start_dt": "2019-24-05",
   "capacity": "",
   "id": "",
   "start_day": "",
   "venue_zip": "",
   "is_official": "1",
   "id_obfuscated": "gpg5bt"
 },
 {
   "name": "Plastic attacks - Saint Raphaël",
   "location": "Saint Raphaël",
   "url": "https://docs.google.com/forms/d/e/1FAIpQLSe-0WQWlUntqC2JjWgdRXEh9yiWQ8LyMjjTsTiZ2etWqeinvg/viewform?usp=sf_link",
   "latitude": "43.42519",
   "longitude": " 6.76837",
   "event_type_name": "Plastic attacks",
   "start_time": "",
   "start_dt": "2019-24-05",
   "capacity": "",
   "id": "",
   "start_day": "",
   "venue_zip": "",
   "is_official": "1",
   "id_obfuscated": "gpg5bt"
 },
 {
   "name": "Plastic attacks - Saint-Denis",
   "location": "Saint-Denis",
   "url": "https://docs.google.com/forms/d/e/1FAIpQLSe-0WQWlUntqC2JjWgdRXEh9yiWQ8LyMjjTsTiZ2etWqeinvg/viewform?usp=sf_link",
   "latitude": "48.936181",
   "longitude": " 2.357443",
   "event_type_name": "Plastic attacks",
   "start_time": "",
   "start_dt": "2019-24-05",
   "capacity": "",
   "id": "",
   "start_day": "",
   "venue_zip": "",
   "is_official": "1",
   "id_obfuscated": "gpg5bt"
 },
 {
   "name": "Plastic attacks - Saint-Jean De Luz",
   "location": "Saint-Jean De Luz",
   "url": "https://docs.google.com/forms/d/e/1FAIpQLSe-0WQWlUntqC2JjWgdRXEh9yiWQ8LyMjjTsTiZ2etWqeinvg/viewform?usp=sf_link",
   "latitude": "43.388051",
   "longitude": " -1.663055",
   "event_type_name": "Plastic attacks",
   "start_time": "",
   "start_dt": "2019-24-05",
   "capacity": "",
   "id": "",
   "start_day": "",
   "venue_zip": "",
   "is_official": "1",
   "id_obfuscated": "gpg5bt"
 },
 {
   "name": "Plastic attacks - Sainte Maxime ",
   "location": "Sainte Maxime ",
   "url": "https://docs.google.com/forms/d/e/1FAIpQLSe-0WQWlUntqC2JjWgdRXEh9yiWQ8LyMjjTsTiZ2etWqeinvg/viewform?usp=sf_link",
   "latitude": "43.310184",
   "longitude": " 6.640482",
   "event_type_name": "Plastic attacks",
   "start_time": "",
   "start_dt": "2019-24-05",
   "capacity": "",
   "id": "",
   "start_day": "",
   "venue_zip": "",
   "is_official": "1",
   "id_obfuscated": "gpg5bt"
 },
 {
   "name": "Plastic attacks - Saintes",
   "location": "Saintes",
   "url": "https://docs.google.com/forms/d/e/1FAIpQLSe-0WQWlUntqC2JjWgdRXEh9yiWQ8LyMjjTsTiZ2etWqeinvg/viewform?usp=sf_link",
   "latitude": "45.744175",
   "longitude": " -0.633389",
   "event_type_name": "Plastic attacks",
   "start_time": "",
   "start_dt": "2019-24-05",
   "capacity": "",
   "id": "",
   "start_day": "",
   "venue_zip": "",
   "is_official": "1",
   "id_obfuscated": "gpg5bt"
 },
 {
   "name": "Plastic attacks - Savigny Sur Braye",
   "location": "Savigny Sur Braye",
   "url": "https://docs.google.com/forms/d/e/1FAIpQLSe-0WQWlUntqC2JjWgdRXEh9yiWQ8LyMjjTsTiZ2etWqeinvg/viewform?usp=sf_link",
   "latitude": "47.879603",
   "longitude": " 0.8095829999999999",
   "event_type_name": "Plastic attacks",
   "start_time": "",
   "start_dt": "2019-24-05",
   "capacity": "",
   "id": "",
   "start_day": "",
   "venue_zip": "",
   "is_official": "1",
   "id_obfuscated": "gpg5bt"
 },
 {
   "name": "Plastic attacks - Sawyerville",
   "location": "Sawyerville",
   "url": "https://docs.google.com/forms/d/e/1FAIpQLSe-0WQWlUntqC2JjWgdRXEh9yiWQ8LyMjjTsTiZ2etWqeinvg/viewform?usp=sf_link",
   "latitude": "32.7517973",
   "longitude": " -87.72945469999999",
   "event_type_name": "Plastic attacks",
   "start_time": "",
   "start_dt": "2019-24-05",
   "capacity": "",
   "id": "",
   "start_day": "",
   "venue_zip": "",
   "is_official": "1",
   "id_obfuscated": "gpg5bt"
 },
 {
   "name": "Plastic attacks - Sens",
   "location": "Sens",
   "url": "https://docs.google.com/forms/d/e/1FAIpQLSe-0WQWlUntqC2JjWgdRXEh9yiWQ8LyMjjTsTiZ2etWqeinvg/viewform?usp=sf_link",
   "latitude": "48.20065",
   "longitude": " 3.28268",
   "event_type_name": "Plastic attacks",
   "start_time": "",
   "start_dt": "2019-24-05",
   "capacity": "",
   "id": "",
   "start_day": "",
   "venue_zip": "",
   "is_official": "1",
   "id_obfuscated": "gpg5bt"
 },
 {
   "name": "Plastic attacks - Sète",
   "location": "Sète",
   "url": "https://docs.google.com/forms/d/e/1FAIpQLSe-0WQWlUntqC2JjWgdRXEh9yiWQ8LyMjjTsTiZ2etWqeinvg/viewform?usp=sf_link",
   "latitude": "43.4078758",
   "longitude": " 3.7008219",
   "event_type_name": "Plastic attacks",
   "start_time": "",
   "start_dt": "2019-24-05",
   "capacity": "",
   "id": "",
   "start_day": "",
   "venue_zip": "",
   "is_official": "1",
   "id_obfuscated": "gpg5bt"
 },
 {
   "name": "Plastic attacks - St Gilles Croix De Vie",
   "location": "St Gilles Croix De Vie",
   "url": "https://docs.google.com/forms/d/e/1FAIpQLSe-0WQWlUntqC2JjWgdRXEh9yiWQ8LyMjjTsTiZ2etWqeinvg/viewform?usp=sf_link",
   "latitude": "46.69777699999999",
   "longitude": " -1.944529",
   "event_type_name": "Plastic attacks",
   "start_time": "",
   "start_dt": "2019-24-05",
   "capacity": "",
   "id": "",
   "start_day": "",
   "venue_zip": "",
   "is_official": "1",
   "id_obfuscated": "gpg5bt"
 },
 {
   "name": "Plastic attacks - Strasbourg",
   "location": "Strasbourg",
   "url": "https://docs.google.com/forms/d/e/1FAIpQLSe-0WQWlUntqC2JjWgdRXEh9yiWQ8LyMjjTsTiZ2etWqeinvg/viewform?usp=sf_link",
   "latitude": "48.5734053",
   "longitude": " 7.752111299999999",
   "event_type_name": "Plastic attacks",
   "start_time": "",
   "start_dt": "2019-24-05",
   "capacity": "",
   "id": "",
   "start_day": "",
   "venue_zip": "",
   "is_official": "1",
   "id_obfuscated": "gpg5bt"
 },
 {
   "name": "Plastic attacks - Tahiti",
   "location": "Tahiti",
   "url": "https://docs.google.com/forms/d/e/1FAIpQLSe-0WQWlUntqC2JjWgdRXEh9yiWQ8LyMjjTsTiZ2etWqeinvg/viewform?usp=sf_link",
   "latitude": "-17.679742",
   "longitude": " -149.406843",
   "event_type_name": "Plastic attacks",
   "start_time": "",
   "start_dt": "2019-24-05",
   "capacity": "",
   "id": "",
   "start_day": "",
   "venue_zip": "",
   "is_official": "1",
   "id_obfuscated": "gpg5bt"
 },
 {
   "name": "Plastic attacks - Talmond Saint Hilaire ",
   "location": "Talmond Saint Hilaire ",
   "url": "https://docs.google.com/forms/d/e/1FAIpQLSe-0WQWlUntqC2JjWgdRXEh9yiWQ8LyMjjTsTiZ2etWqeinvg/viewform?usp=sf_link",
   "latitude": "46.466102",
   "longitude": " -1.618261",
   "event_type_name": "Plastic attacks",
   "start_time": "",
   "start_dt": "2019-24-05",
   "capacity": "",
   "id": "",
   "start_day": "",
   "venue_zip": "",
   "is_official": "1",
   "id_obfuscated": "gpg5bt"
 },
 {
   "name": "Plastic attacks - Thonon Les Bains",
   "location": "Thonon Les Bains",
   "url": "https://docs.google.com/forms/d/e/1FAIpQLSe-0WQWlUntqC2JjWgdRXEh9yiWQ8LyMjjTsTiZ2etWqeinvg/viewform?usp=sf_link",
   "latitude": "46.373565",
   "longitude": " 6.477634999999999",
   "event_type_name": "Plastic attacks",
   "start_time": "",
   "start_dt": "2019-24-05",
   "capacity": "",
   "id": "",
   "start_day": "",
   "venue_zip": "",
   "is_official": "1",
   "id_obfuscated": "gpg5bt"
 },
 {
   "name": "Plastic attacks - Torcy",
   "location": "Torcy",
   "url": "https://docs.google.com/forms/d/e/1FAIpQLSe-0WQWlUntqC2JjWgdRXEh9yiWQ8LyMjjTsTiZ2etWqeinvg/viewform?usp=sf_link",
   "latitude": "48.850572",
   "longitude": " 2.654472",
   "event_type_name": "Plastic attacks",
   "start_time": "",
   "start_dt": "2019-24-05",
   "capacity": "",
   "id": "",
   "start_day": "",
   "venue_zip": "",
   "is_official": "1",
   "id_obfuscated": "gpg5bt"
 },
 {
   "name": "Plastic attacks - Toulon",
   "location": "Toulon",
   "url": "https://docs.google.com/forms/d/e/1FAIpQLSe-0WQWlUntqC2JjWgdRXEh9yiWQ8LyMjjTsTiZ2etWqeinvg/viewform?usp=sf_link",
   "latitude": "43.124228",
   "longitude": " 5.928",
   "event_type_name": "Plastic attacks",
   "start_time": "",
   "start_dt": "2019-24-05",
   "capacity": "",
   "id": "",
   "start_day": "",
   "venue_zip": "",
   "is_official": "1",
   "id_obfuscated": "gpg5bt"
 },
 {
   "name": "Plastic attacks - Toulouse",
   "location": "Toulouse",
   "url": "https://docs.google.com/forms/d/e/1FAIpQLSe-0WQWlUntqC2JjWgdRXEh9yiWQ8LyMjjTsTiZ2etWqeinvg/viewform?usp=sf_link",
   "latitude": "43.604652",
   "longitude": " 1.444209",
   "event_type_name": "Plastic attacks",
   "start_time": "",
   "start_dt": "2019-24-05",
   "capacity": "",
   "id": "",
   "start_day": "",
   "venue_zip": "",
   "is_official": "1",
   "id_obfuscated": "gpg5bt"
 },
 {
   "name": "Plastic attacks - Tourcoing",
   "location": "Tourcoing",
   "url": "https://docs.google.com/forms/d/e/1FAIpQLSe-0WQWlUntqC2JjWgdRXEh9yiWQ8LyMjjTsTiZ2etWqeinvg/viewform?usp=sf_link",
   "latitude": "50.724993",
   "longitude": " 3.16207",
   "event_type_name": "Plastic attacks",
   "start_time": "",
   "start_dt": "2019-24-05",
   "capacity": "",
   "id": "",
   "start_day": "",
   "venue_zip": "",
   "is_official": "1",
   "id_obfuscated": "gpg5bt"
 },
 {
   "name": "Plastic attacks - Tournan",
   "location": "Tournan",
   "url": "https://docs.google.com/forms/d/e/1FAIpQLSe-0WQWlUntqC2JjWgdRXEh9yiWQ8LyMjjTsTiZ2etWqeinvg/viewform?usp=sf_link",
   "latitude": "48.73988989999999",
   "longitude": " 2.7657824",
   "event_type_name": "Plastic attacks",
   "start_time": "",
   "start_dt": "2019-24-05",
   "capacity": "",
   "id": "",
   "start_day": "",
   "venue_zip": "",
   "is_official": "1",
   "id_obfuscated": "gpg5bt"
 },
 {
   "name": "Plastic attacks - Tours",
   "location": "Tours",
   "url": "https://docs.google.com/forms/d/e/1FAIpQLSe-0WQWlUntqC2JjWgdRXEh9yiWQ8LyMjjTsTiZ2etWqeinvg/viewform?usp=sf_link",
   "latitude": "47.394144",
   "longitude": " 0.68484",
   "event_type_name": "Plastic attacks",
   "start_time": "",
   "start_dt": "2019-24-05",
   "capacity": "",
   "id": "",
   "start_day": "",
   "venue_zip": "",
   "is_official": "1",
   "id_obfuscated": "gpg5bt"
 },
 {
   "name": "Plastic attacks - Troyes",
   "location": "Troyes",
   "url": "https://docs.google.com/forms/d/e/1FAIpQLSe-0WQWlUntqC2JjWgdRXEh9yiWQ8LyMjjTsTiZ2etWqeinvg/viewform?usp=sf_link",
   "latitude": "48.2973451",
   "longitude": " 4.0744009",
   "event_type_name": "Plastic attacks",
   "start_time": "",
   "start_dt": "2019-24-05",
   "capacity": "",
   "id": "",
   "start_day": "",
   "venue_zip": "",
   "is_official": "1",
   "id_obfuscated": "gpg5bt"
 },
 {
   "name": "Plastic attacks - Valence",
   "location": "Valence",
   "url": "https://docs.google.com/forms/d/e/1FAIpQLSe-0WQWlUntqC2JjWgdRXEh9yiWQ8LyMjjTsTiZ2etWqeinvg/viewform?usp=sf_link",
   "latitude": "44.933393",
   "longitude": " 4.89236",
   "event_type_name": "Plastic attacks",
   "start_time": "",
   "start_dt": "2019-24-05",
   "capacity": "",
   "id": "",
   "start_day": "",
   "venue_zip": "",
   "is_official": "1",
   "id_obfuscated": "gpg5bt"
 },
 {
   "name": "Plastic attacks - Valenciennes",
   "location": "Valenciennes",
   "url": "https://docs.google.com/forms/d/e/1FAIpQLSe-0WQWlUntqC2JjWgdRXEh9yiWQ8LyMjjTsTiZ2etWqeinvg/viewform?usp=sf_link",
   "latitude": "50.357113",
   "longitude": " 3.518332",
   "event_type_name": "Plastic attacks",
   "start_time": "",
   "start_dt": "2019-24-05",
   "capacity": "",
   "id": "",
   "start_day": "",
   "venue_zip": "",
   "is_official": "1",
   "id_obfuscated": "gpg5bt"
 },
 {
   "name": "Plastic attacks - Vannes",
   "location": "Vannes",
   "url": "https://docs.google.com/forms/d/e/1FAIpQLSe-0WQWlUntqC2JjWgdRXEh9yiWQ8LyMjjTsTiZ2etWqeinvg/viewform?usp=sf_link",
   "latitude": "47.658236",
   "longitude": " -2.760847",
   "event_type_name": "Plastic attacks",
   "start_time": "",
   "start_dt": "2019-24-05",
   "capacity": "",
   "id": "",
   "start_day": "",
   "venue_zip": "",
   "is_official": "1",
   "id_obfuscated": "gpg5bt"
 },
 {
   "name": "Plastic attacks - Vence",
   "location": "Vence",
   "url": "https://docs.google.com/forms/d/e/1FAIpQLSe-0WQWlUntqC2JjWgdRXEh9yiWQ8LyMjjTsTiZ2etWqeinvg/viewform?usp=sf_link",
   "latitude": "43.7223216",
   "longitude": " 7.111703299999999",
   "event_type_name": "Plastic attacks",
   "start_time": "",
   "start_dt": "2019-24-05",
   "capacity": "",
   "id": "",
   "start_day": "",
   "venue_zip": "",
   "is_official": "1",
   "id_obfuscated": "gpg5bt"
 },
 {
   "name": "Plastic attacks - Versailles",
   "location": "Versailles",
   "url": "https://docs.google.com/forms/d/e/1FAIpQLSe-0WQWlUntqC2JjWgdRXEh9yiWQ8LyMjjTsTiZ2etWqeinvg/viewform?usp=sf_link",
   "latitude": "48.801408",
   "longitude": " 2.130122",
   "event_type_name": "Plastic attacks",
   "start_time": "",
   "start_dt": "2019-24-05",
   "capacity": "",
   "id": "",
   "start_day": "",
   "venue_zip": "",
   "is_official": "1",
   "id_obfuscated": "gpg5bt"
 },
 {
   "name": "Plastic attacks - Villeurbanne",
   "location": "Villeurbanne",
   "url": "https://docs.google.com/forms/d/e/1FAIpQLSe-0WQWlUntqC2JjWgdRXEh9yiWQ8LyMjjTsTiZ2etWqeinvg/viewform?usp=sf_link",
   "latitude": "45.771944",
   "longitude": " 4.8901709",
   "event_type_name": "Plastic attacks",
   "start_time": "",
   "start_dt": "2019-24-05",
   "capacity": "",
   "id": "",
   "start_day": "",
   "venue_zip": "",
   "is_official": "1",
   "id_obfuscated": "gpg5bt"
 },
 {
   "name": "Plastic attacks - Vincennes",
   "location": "Vincennes",
   "url": "https://docs.google.com/forms/d/e/1FAIpQLSe-0WQWlUntqC2JjWgdRXEh9yiWQ8LyMjjTsTiZ2etWqeinvg/viewform?usp=sf_link",
   "latitude": "48.847759",
   "longitude": " 2.4394969",
   "event_type_name": "Plastic attacks",
   "start_time": "",
   "start_dt": "2019-24-05",
   "capacity": "",
   "id": "",
   "start_day": "",
   "venue_zip": "",
   "is_official": "1",
   "id_obfuscated": "gpg5bt"
 },
 {
   "name": "Plastic attacks - Vire",
   "location": "Vire",
   "url": "https://docs.google.com/forms/d/e/1FAIpQLSe-0WQWlUntqC2JjWgdRXEh9yiWQ8LyMjjTsTiZ2etWqeinvg/viewform?usp=sf_link",
   "latitude": "48.837781",
   "longitude": " -0.888482",
   "event_type_name": "Plastic attacks",
   "start_time": "",
   "start_dt": "2019-24-05",
   "capacity": "",
   "id": "",
   "start_day": "",
   "venue_zip": "",
   "is_official": "1",
   "id_obfuscated": "gpg5bt"
 },
 {
   "name": "Plastic attacks - Vire Coutance",
   "location": "Vire Coutance",
   "url": "https://docs.google.com/forms/d/e/1FAIpQLSe-0WQWlUntqC2JjWgdRXEh9yiWQ8LyMjjTsTiZ2etWqeinvg/viewform?usp=sf_link",
   "latitude": "48.837781",
   "longitude": " -0.888482",
   "event_type_name": "Plastic attacks",
   "start_time": "",
   "start_dt": "2019-24-05",
   "capacity": "",
   "id": "",
   "start_day": "",
   "venue_zip": "",
   "is_official": "1",
   "id_obfuscated": "gpg5bt"
 },
 {
   "name": "Plastic attacks - Vitré",
   "location": "Vitré",
   "url": "https://docs.google.com/forms/d/e/1FAIpQLSe-0WQWlUntqC2JjWgdRXEh9yiWQ8LyMjjTsTiZ2etWqeinvg/viewform?usp=sf_link",
   "latitude": "48.12474599999999",
   "longitude": " -1.21543",
   "event_type_name": "Plastic attacks",
   "start_time": "",
   "start_dt": "2019-24-05",
   "capacity": "",
   "id": "",
   "start_day": "",
   "venue_zip": "",
   "is_official": "1",
   "id_obfuscated": "gpg5bt"
 },
 {
   "name": "Plastic attacks - Voiron",
   "location": "Voiron",
   "url": "https://docs.google.com/forms/d/e/1FAIpQLSe-0WQWlUntqC2JjWgdRXEh9yiWQ8LyMjjTsTiZ2etWqeinvg/viewform?usp=sf_link",
   "latitude": "45.362713",
   "longitude": " 5.591349",
   "event_type_name": "Plastic attacks",
   "start_time": "",
   "start_dt": "2019-24-05",
   "capacity": "",
   "id": "",
   "start_day": "",
   "venue_zip": "",
   "is_official": "1",
   "id_obfuscated": "gpg5bt"
 },
 {
   "name": "",
   "location": "",
   "url": "",
   "latitude": "",
   "longitude": "",
   "event_type_name": "",
   "start_time": "",
   "start_dt": "",
   "capacity": "",
   "id": "",
   "start_day": "",
   "venue_zip": "",
   "is_official": "",
   "id_obfuscated": ""
 },
 {
   "name": "Boycott citoyen - Agen",
   "location": "Agen",
   "url": "https://docs.google.com/forms/d/e/1FAIpQLSe-0WQWlUntqC2JjWgdRXEh9yiWQ8LyMjjTsTiZ2etWqeinvg/viewform?usp=sf_link",
   "latitude": "44.203142",
   "longitude": " 0.616363",
   "event_type_name": "Boycott citoyen",
   "start_time": "",
   "start_dt": "2019-24-05",
   "capacity": "",
   "id": "",
   "start_day": "",
   "venue_zip": "",
   "is_official": "1",
   "id_obfuscated": "gpg5bt"
 },