window.EVENT_DATA ={
   "results":[

      /*School Strikes
      */

       {
         "longitude":"144.9630576",
         "url":"https://www.facebook.com/events/258549698138032/",
         "event_type_name":"Marches",
         "start_time":"11:00:00",
         "start_dt":"2018-12-08 11:00:00",
         "name":"Big School Walk-out for Climate Action - Melbourne",
         "location":"Australia",
         "capacity":"0",
         "id":"230901",
         "start_day":"2018-12-08",
         "venue_zip":"",
         "latitude":"-37.8136276",
         "is_official":"1",
         "id_obfuscated":"gpg5bt"
      },
       {
         "longitude":"138.6007456",
         "url":"https://www.facebook.com/events/482402465603395/",
         "event_type_name":"Marches",
         "start_time":"11:00:00",
         "start_dt":"2018-12-08 11:00:00",
         "name":"Big School Walk-out for Climate Action - Adelaide",
         "location":"Australia",
         "capacity":"0",
         "id":"230901",
         "start_day":"2018-12-08",
         "venue_zip":"",
         "latitude":"-34.9284989",
         "is_official":"1",
         "id_obfuscated":"gpg5bt"
      },
       {
         "longitude":"148.7268546",
         "url":"https://www.facebook.com/events/262367517756857/",
         "event_type_name":"Marches",
         "start_time":"11:00:00",
         "start_dt":"2018-12-08 11:00:00",
         "name":"Big School Walk-out for Climate Action - Whitsundays",
         "location":"Australia",
         "capacity":"0",
         "id":"230901",
         "start_day":"2018-12-08",
         "venue_zip":"",
         "latitude":"-20.1862425",
         "is_official":"1",
         "id_obfuscated":"gpg5bt"
      },      
      {
         "longitude":"148.7268546",
         "url":"https://www.facebook.com/events/262367517756857/",
         "event_type_name":"Marches",
         "start_time":"11:00:00",
         "start_dt":"2018-12-08 11:00:00",
         "name":"Big School Walk-out for Climate Action - Whitsundays",
         "location":"Australia",
         "capacity":"0",
         "id":"230901",
         "start_day":"2018-12-08",
         "venue_zip":"",
         "latitude":"-20.1862425",
         "is_official":"1",
         "id_obfuscated":"gpg5bt"
      },
{
         "longitude":"153.4",
         "url":"https://www.facebook.com/events/182808479320685/",
         "event_type_name":"Marches",
         "start_time":"11:00:00",
         "start_dt":"2018-12-08 11:00:00",
         "name":"Big School Walk-out for Climate Action - Gold Coast",
         "location":"Australia",
         "capacity":"0",
         "id":"230901",
         "start_day":"2018-12-08",
         "venue_zip":"",
         "latitude":"-28.016667",
         "is_official":"1",
         "id_obfuscated":"gpg5bt"
      },
{
         "longitude":"151.2092955",
         "url":"https://www.facebook.com/events/352019415545363/",
         "event_type_name":"Marches",
         "start_time":"11:00:00",
         "start_dt":"2018-12-08 11:00:00",
         "name":"Big School Walk-out for Climate Action - Sydney",
         "location":"Australia",
         "capacity":"0",
         "id":"230901",
         "start_day":"2018-12-08",
         "venue_zip":"",
         "latitude":"-33.8688197",
         "is_official":"1",
         "id_obfuscated":"gpg5bt"
      },
{
         "longitude":"115.8604572",
         "url":"https://www.facebook.com/events/444004389460950/",
         "event_type_name":"Marches",
         "start_time":"11:00:00",
         "start_dt":"2018-12-08 11:00:00",
         "name":"Big School Walk-out for Climate Action - Perth",
         "location":"Australia",
         "capacity":"0",
         "id":"230901",
         "start_day":"2018-12-08",
         "venue_zip":"",
         "latitude":"-31.9505269",
         "is_official":"1",
         "id_obfuscated":"gpg5bt"
      },
{
         "longitude":"146.9135418",
         "url":"https://www.facebook.com/events/293880081227410/",
         "event_type_name":"Marches",
         "start_time":"11:00:00",
         "start_dt":"2018-12-08 11:00:00",
         "name":"Big School Walk-out for Climate Action - Albury",
         "location":"Australia",
         "capacity":"0",
         "id":"230901",
         "start_day":"2018-12-08",
         "venue_zip":"",
         "latitude":"-36.0737293",
         "is_official":"1",
         "id_obfuscated":"gpg5bt"
      },
      {

         "longitude":"153.2882876",
         "url":"https://www.facebook.com/events/505201836627386/",
         "event_type_name":"Marches",
         "start_time":"11:00:00",
         "start_dt":"2018-12-08 11:00:00",
         "name":"Big School Walk-out for Climate Action - Lismore",
         "location":"Australia",
         "capacity":"0",
         "id":"230901",
         "start_day":"2018-12-08",
         "venue_zip":"",
         "latitude":"-28.8093154",
         "is_official":"1",
         "id_obfuscated":"gpg5bt"
      },
      {

         "longitude":"153.2882876",
         "url":"https://www.facebook.com/events/505201836627386/",
         "event_type_name":"Marches",
         "start_time":"11:00:00",
         "start_dt":"2018-12-08 11:00:00",
         "name":"Big School Walk-out for Climate Action - Lismore",
         "location":"Australia",
         "capacity":"0",
         "id":"230901",
         "start_day":"2018-12-08",
         "venue_zip":"",
         "latitude":"-28.8093154",
         "is_official":"1",
         "id_obfuscated":"gpg5bt"
      },
      {

         "longitude":"149.124417",
         "url":"https://www.facebook.com/events/670475843348871/",
         "event_type_name":"Marches",
         "start_time":"11:00:00",
         "start_dt":"2018-12-08 11:00:00",
         "name":"Big School Walk-out for Climate Action - Canberra",
         "location":"Australia",
         "capacity":"0",
         "id":"230901",
         "start_day":"2018-12-08",
         "venue_zip":"",
         "latitude":"-35.3075",
         "is_official":"1",
         "id_obfuscated":"gpg5bt"
      },
            {

         "longitude":"147.3271949",
         "url":"https://www.facebook.com/events/2167210610273061/",
         "event_type_name":"Marches",
         "start_time":"11:00:00",
         "start_dt":"2018-12-08 11:00:00",
         "name":"Big School Walk-out for Climate Action - Hobart",
         "location":"Australia",
         "capacity":"0",
         "id":"230901",
         "start_day":"2018-12-08",
         "venue_zip":"",
         "latitude":"-42.8821377",
         "is_official":"1",
         "id_obfuscated":"gpg5bt"
      },  
      {

         "longitude":"146.8169483",
         "url":"https://www.facebook.com/events/362787904491755/",
         "event_type_name":"Marches",
         "start_time":"11:00:00",
         "start_dt":"2018-12-08 11:00:00",
         "name":"Big School Walk-out for Climate Action - Townsville",
         "location":"Australia",
         "capacity":"0",
         "id":"230901",
         "start_day":"2018-12-08",
         "venue_zip":"",
         "latitude":"-19.2589635",
         "is_official":"1",
         "id_obfuscated":"gpg5bt"
      },
      {

         "longitude":"153.601977",
         "url":"https://www.facebook.com/events/312227469376819/",
         "event_type_name":"Marches",
         "start_time":"11:00:00",
         "start_dt":"2018-12-08 11:00:00",
         "name":"Big School Walk-out for Climate Action - Byron Bay",
         "location":"Australia",
         "capacity":"0",
         "id":"230901",
         "start_day":"2018-12-08",
         "venue_zip":"",
         "latitude":"-28.6473671",
         "is_official":"1",
         "id_obfuscated":"gpg5bt"
      },

      {

         "longitude":"144.3617186",
         "url":"https://www.facebook.com/events/738154029894851/",
         "event_type_name":"Marches",
         "start_time":"11:00:00",
         "start_dt":"2018-12-08 11:00:00",
         "name":"Big School Walk-out for Climate Action - Geelong",
         "location":"Australia",
         "capacity":"0",
         "id":"230901",
         "start_day":"2018-12-08",
         "venue_zip":"",
         "latitude":"-38.1499181",
         "is_official":"1",
         "id_obfuscated":"gpg5bt"
      },

      {

         "longitude":"151.7816802",
         "url":"https://www.facebook.com/events/114651076140537/",
         "event_type_name":"Marches",
         "start_time":"11:00:00",
         "start_dt":"2018-12-08 11:00:00",
         "name":"Big School Walk-out for Climate Action - Newcastle",
         "location":"Australia",
         "capacity":"0",
         "id":"230901",
         "start_day":"2018-12-08",
         "venue_zip":"",
         "latitude":"-32.9282712",
         "is_official":"1",
         "id_obfuscated":"gpg5bt"
      },
      {

         "longitude":"147.066667",
         "url":"https://www.facebook.com/events/1897180247064427/",
         "event_type_name":"Marches",
         "start_time":"11:00:00",
         "start_dt":"2018-12-08 11:00:00",
         "name":"Big School Walk-out for Climate Action - Cygnet",
         "location":"Australia",
         "capacity":"0",
         "id":"230901",
         "start_day":"2018-12-08",
         "venue_zip":"",
         "latitude":"-43.15",
         "is_official":"1",
         "id_obfuscated":"gpg5bt"
      },
      {

         "longitude":"151.5492182",
         "url":"https://www.facebook.com/events/319083402021150/",
         "event_type_name":"Marches",
         "start_time":"11:00:00",
         "start_dt":"2018-12-08 11:00:00",
         "name":"Big School Walk-out for Climate Action - Maitland",
         "location":"Australia",
         "capacity":"0",
         "id":"230901",
         "start_day":"2018-12-08",
         "venue_zip":"",
         "latitude":"-32.7383988",
         "is_official":"1",
         "id_obfuscated":"gpg5bt"
      },

      {

         "longitude":"150.8930607",
         "url":"https://www.facebook.com/events/196312407956932/",
         "event_type_name":"Marches",
         "start_time":"11:00:00",
         "start_dt":"2018-12-08 11:00:00",
         "name":"Big School Walk-out for Climate Action - Wollongong",
         "location":"Australia",
         "capacity":"0",
         "id":"230901",
         "start_day":"2018-12-08",
         "venue_zip":"",
         "latitude":"-34.4278121",
         "is_official":"1",
         "id_obfuscated":"gpg5bt"
      },

      {

         "longitude":"152.9",
         "url":"https://www.facebook.com/events/325436644915669/",
         "event_type_name":"Marches",
         "start_time":"11:00:00",
         "start_dt":"2018-12-08 11:00:00",
         "name":"Big School Walk-out for Climate Action - Port Macquarie",
         "location":"Australia",
         "capacity":"0",
         "id":"230901",
         "start_day":"2018-12-08",
         "venue_zip":"",
         "latitude":"-31.433333",
         "is_official":"1",
         "id_obfuscated":"gpg5bt"
      },
      {

         "longitude":"152.9336547",
         "url":"https://www.facebook.com/events/2098855437095914/",
         "event_type_name":"Marches",
         "start_time":"11:00:00",
         "start_dt":"2018-12-08 11:00:00",
         "name":"Big School Walk-out for Climate Action - Grafton",
         "location":"Australia",
         "capacity":"0",
         "id":"230901",
         "start_day":"2018-12-08",
         "venue_zip":"",
         "latitude":"-29.6816894",
         "is_official":"1",
         "id_obfuscated":"gpg5bt"
      },

      {

         "longitude":"145.7780548",
         "url":"https://www.facebook.com/events/1958810477547615/",
         "event_type_name":"Marches",
         "start_time":"11:00:00",
         "start_dt":"2018-12-08 11:00:00",
         "name":"Big School Walk-out for Climate Action - Grafton",
         "location":"Australia",
         "capacity":"0",
         "id":"230901",
         "start_day":"2018-12-08",
         "venue_zip":"",
         "latitude":"-16.9185514",
         "is_official":"1",
         "id_obfuscated":"gpg5bt"
      },

      {

         "longitude":"153.1093922",
         "url":"https://www.facebook.com/events/319733805533716/",
         "event_type_name":"Marches",
         "start_time":"11:00:00",
         "start_dt":"2018-12-08 11:00:00",
         "name":"Big School Walk-out for Climate Action - Coffs Region",
         "location":"Australia",
         "capacity":"0",
         "id":"230901",
         "start_day":"2018-12-08",
         "venue_zip":"",
         "latitude":"-30.298612",
         "is_official":"1",
         "id_obfuscated":"gpg5bt"
      },

      {

         "longitude":"143.8502556",
         "url":"https://www.facebook.com/groups/1933369976972843/",
         "event_type_name":"Marches",
         "start_time":"11:00:00",
         "start_dt":"2018-12-08 11:00:00",
         "name":"Big School Walk-out for Climate Action - Ballarat",
         "location":"Australia",
         "capacity":"0",
         "id":"230901",
         "start_day":"2018-12-08",
         "venue_zip":"",
         "latitude":"-37.5621587",
         "is_official":"1",
         "id_obfuscated":"gpg5bt"
      },

      {

         "longitude":"149.8416404",
         "url":"https://www.facebook.com/events/880641358805008/",
         "event_type_name":"Marches",
         "start_time":"11:00:00",
         "start_dt":"2018-12-08 11:00:00",
         "name":"Big School Walk-out for Climate Action - Bega",
         "location":"Australia",
         "capacity":"0",
         "id":"230901",
         "start_day":"2018-12-08",
         "venue_zip":"",
         "latitude":"-36.6889097",
         "is_official":"1",
         "id_obfuscated":"gpg5bt"
      },

      {

         "longitude":"151.1102815",
         "url":"https://www.facebook.com/events/520861925058426/",
         "event_type_name":"Marches",
         "start_time":"11:00:00",
         "start_dt":"2018-12-08 11:00:00",
         "name":"Big School Walk-out for Climate Action - Inverell",
         "location":"Australia",
         "capacity":"0",
         "id":"230901",
         "start_day":"2018-12-08",
         "venue_zip":"",
         "latitude":"-29.7627514",
         "is_official":"1",
         "id_obfuscated":"gpg5bt"
      },
      {

         "longitude":"151.1102815",
         "url":"https://www.facebook.com/events/520861925058426/",
         "event_type_name":"Marches",
         "start_time":"11:00:00",
         "start_dt":"2018-12-08 11:00:00",
         "name":"Big School Walk-out for Climate Action - Inverell",
         "location":"Australia",
         "capacity":"0",
         "id":"230901",
         "start_day":"2018-12-08",
         "venue_zip":"",
         "latitude":"-29.7627514",
         "is_official":"1",
         "id_obfuscated":"gpg5bt"
      },
      {

         "longitude":"24.9375",
         "url":"https://www.facebook.com/events/331465807431173/",
         "event_type_name":"FridaysForFuture",
         "start_time":"11:00:00",
         "start_dt":"2018-12-08 11:00:00",
         "name":"Perjantait Gretan kanssa",
         "location":"Helsingfors, Finland",
         "capacity":"0",
         "id":"230901",
         "start_day":"2018-12-08",
         "venue_zip":"",
         "latitude":"60.1708",
         "is_official":"1",
         "id_obfuscated":"gpg5bt"
      },
      {

         "longitude":"25.4667",
         "url":"https://www.facebook.com/events/801609676856094/",
         "event_type_name":"FridaysForFuture",
         "start_time":"11:00:00",
         "start_dt":"2018-12-08 11:00:00",
         "name":"Oulu istuu Gretan kanssa",
         "location":"Uleåborg, Finland",
         "capacity":"0",
         "id":"230901",
         "start_day":"2018-12-08",
         "venue_zip":"",
         "latitude":"65.0167",
         "is_official":"1",
         "id_obfuscated":"gpg5bt"
      },
      {

         "longitude":"23.125",
         "url":"https://www.facebook.com/events/2195118390740234/",
         "event_type_name":"FridaysForFuture",
         "start_time":"11:00:00",
         "start_dt":"2018-12-08 11:00:00",
         "name":"Salo istuu Gretan kanssa",
         "location":"Salo, Finland",
         "capacity":"0",
         "id":"230901",
         "start_day":"2018-12-08",
         "venue_zip":"",
         "latitude":"60.3861",
         "is_official":"1",
         "id_obfuscated":"gpg5bt"
      },
      {

         "longitude":"22.2667",
         "url":"https://www.facebook.com/events/1986603661452343/",
         "event_type_name":"FridaysForFuture",
         "start_time":"11:00:00",
         "start_dt":"2018-12-08 11:00:00",
         "name":"Turku istuu Gretan kanssa",
         "location":"Turku, Finland",
         "capacity":"0",
         "id":"230901",
         "start_day":"2018-12-08",
         "venue_zip":"",
         "latitude":"60.4514",
         "is_official":"1",
         "id_obfuscated":"gpg5bt"
      },

      {

         "longitude":"25.1903",
         "url":"https://www.facebook.com/events/1998803696866422/",
         "event_type_name":"FridaysForFuture",
         "start_time":"11:00:00",
         "start_dt":"2018-12-08 11:00:00",
         "name":"Jämsä istuu Gretan kanssa",
         "location":"Jämsä, Finland",
         "capacity":"0",
         "id":"230901",
         "start_day":"2018-12-08",
         "venue_zip":"",
         "latitude":"61.8638",
         "is_official":"1",
         "id_obfuscated":"gpg5bt"
      },
      {

         "longitude":"25.7444",
         "url":"https://www.facebook.com/events/2217463671799530/",
         "event_type_name":"FridaysForFuture",
         "start_time":"11:00:00",
         "start_dt":"2018-12-08 11:00:00",
         "name":"Jyväskylä istuu Gretan kanssa",
         "location":"Jyväskylä, Finland",
         "capacity":"0",
         "id":"230901",
         "start_day":"2018-12-08",
         "venue_zip":"",
         "latitude":"62.2403",
         "is_official":"1",
         "id_obfuscated":"gpg5bt"
      },

      {

         "longitude":"21.5056",
         "url":"https://www.facebook.com/events/352124288896563/",
         "event_type_name":"FridaysForFuture",
         "start_time":"11:00:00",
         "start_dt":"2018-12-08 11:00:00",
         "name":"Rauma istuu Gretan kanssa",
         "location":"Rauma, Finland",
         "capacity":"0",
         "id":"230901",
         "start_day":"2018-12-08",
         "venue_zip":"",
         "latitude":"61.1292",
         "is_official":"1",
         "id_obfuscated":"gpg5bt"
      },

      {

         "longitude":"25.7333",
         "url":"https://www.facebook.com/events/391655041602377/",
         "event_type_name":"FridaysForFuture",
         "start_time":"11:00:00",
         "start_dt":"2018-12-08 11:00:00",
         "name":"Rovaniemi istuu Gretan kanssa",
         "location":"Rovaniemi, Finland",
         "capacity":"0",
         "id":"230901",
         "start_day":"2018-12-08",
         "venue_zip":"",
         "latitude":"66.5",
         "is_official":"1",
         "id_obfuscated":"gpg5bt"
      },

      {

         "longitude":"25.9928",
         "url":"https://www.facebook.com/events/2227169900890724/",
         "event_type_name":"FridaysForFuture",
         "start_time":"11:00:00",
         "start_dt":"2018-12-08 11:00:00",
         "name":"Isnäs istuu Gretan kanssa",
         "location":"Isnäs, Finland",
         "capacity":"0",
         "id":"230901",
         "start_day":"2018-12-08",
         "venue_zip":"",
         "latitude":"60.6965",
         "is_official":"1",
         "id_obfuscated":"gpg5bt"
      },


/* Fridays for future december*/
{
   "name": "Friday For Future",
   "location": "Katowice, Poland",
   "url": "",
   "latitude": "50.2648918999999",
   "longitude": "19.0237815",
   "event_type_name": "FridaysForFuture",
   "start_time": "",
   "start_dt": "",
   "capacity": "",
   "id": "",
   "start-day": "2018-12-14",
   "venue_zip": "",
   "is_official": "",
   "id_obfuscated": ""
 },
 {
   "name": "Friday For Future",
   "location": "#StockholmRegering , dec 12, kl8-12 outside parlament (or at mynttorget if guards demand), budgetmeeting starts 9",
   "url": "",
   "latitude": "59.3267464",
   "longitude": "18.0692843",
   "event_type_name": "FridaysForFuture",
   "start_time": "",
   "start_dt": "",
   "capacity": "",
   "id": "",
   "start-day": "2018-12-14",
   "venue_zip": "",
   "is_official": "",
   "id_obfuscated": ""
 },
 {
   "name": "Friday For Future",
   "location": "ALINGSÅS, Rådhuset, kl 17-18 ",
   "url": "https://www.facebook.com/events/352340372186604/",
   "latitude": "57.9300205",
   "longitude": "12.5362113",
   "event_type_name": "FridaysForFuture",
   "start_time": "",
   "start_dt": "",
   "capacity": "",
   "id": "",
   "start-day": "2018-12-14",
   "venue_zip": "",
   "is_official": "",
   "id_obfuscated": ""
 },
 {
   "name": "Friday For Future",
   "location": "ÄLMHULT kl15-16 ",
   "url": "https://www.facebook.com/events/715531572164399",
   "latitude": "56.5524461",
   "longitude": "14.1374047",
   "event_type_name": "FridaysForFuture",
   "start_time": "",
   "start_dt": "",
   "capacity": "",
   "id": "",
   "start-day": "2018-12-14",
   "venue_zip": "",
   "is_official": "",
   "id_obfuscated": ""
 },
 {
   "name": "Friday For Future",
   "location": "ANEBY Kontakt: Sibylla Jämting, sibylla.jamting@rjl.se",
   "url": "",
   "latitude": "57.838521",
   "longitude": "14.8178022",
   "event_type_name": "FridaysForFuture",
   "start_time": "",
   "start_dt": "",
   "capacity": "",
   "id": "",
   "start-day": "2018-12-14",
   "venue_zip": "",
   "is_official": "",
   "id_obfuscated": ""
 },
 {
   "name": "Friday For Future",
   "location": "ÅNGE, Rådhus, kl12-13 kontakt Tina Wilhelmsson ",
   "url": "https://www.facebook.com/events/2145427029008478/",
   "latitude": "62.5228738",
   "longitude": "15.6589418999999",
   "event_type_name": "FridaysForFuture",
   "start_time": "",
   "start_dt": "",
   "capacity": "",
   "id": "",
   "start-day": "2018-12-14",
   "venue_zip": "",
   "is_official": "",
   "id_obfuscated": ""
 },
 {
   "name": "Friday For Future",
   "location": "BODEN stadshuset, kyrkgatan kl12-13 kontakt Anna-Greta F Rensfeldt ",
   "url": "https://www.facebook.com/events/2367940176569238/",
   "latitude": "59.3274506",
   "longitude": "18.0543456",
   "event_type_name": "FridaysForFuture",
   "start_time": "",
   "start_dt": "",
   "capacity": "",
   "id": "",
   "start-day": "2018-12-14",
   "venue_zip": "",
   "is_official": "",
   "id_obfuscated": ""
 },
 {
   "name": "Friday For Future",
   "location": "EKERÖ kommunhus, nästa 28/12 kl15-17 kontakt Teresa Soler. ",
   "url": "https://www.facebook.com/events/736267426726380/",
   "latitude": "59.359052",
   "longitude": "17.6694942",
   "event_type_name": "FridaysForFuture",
   "start_time": "",
   "start_dt": "",
   "capacity": "",
   "id": "",
   "start-day": "2018-12-14",
   "venue_zip": "",
   "is_official": "",
   "id_obfuscated": ""
 },
 {
   "name": "Friday For Future",
   "location": "FALKÖPING Resecentrum, kl. 16-17 ",
   "url": "https://www.facebook.com/events/309869876523848/",
   "latitude": "58.1750289999999",
   "longitude": "13.553217",
   "event_type_name": "FridaysForFuture",
   "start_time": "",
   "start_dt": "",
   "capacity": "",
   "id": "",
   "start-day": "2018-12-14",
   "venue_zip": "",
   "is_official": "",
   "id_obfuscated": ""
 },
 {
   "name": "Friday For Future",
   "location": "FALUN stora torget kl16 kontakt Maj Ardesjö ",
   "url": "https://www.facebook.com/groups/2139210819686099/",
   "latitude": "60.60646",
   "longitude": "15.6355",
   "event_type_name": "FridaysForFuture",
   "start_time": "",
   "start_dt": "",
   "capacity": "",
   "id": "",
   "start-day": "2018-12-14",
   "venue_zip": "",
   "is_official": "",
   "id_obfuscated": ""
 },
 {
   "name": "Friday For Future",
   "location": "GÖTEBORG Gustav Adolfs Torg. kl 15-17 kontakt Kerstin Hamberger ",
   "url": "https://www.facebook.com/klimatsamling2015/",
   "latitude": "57.7072838",
   "longitude": "11.9659166",
   "event_type_name": "FridaysForFuture",
   "start_time": "",
   "start_dt": "",
   "capacity": "",
   "id": "",
   "start-day": "2018-12-14",
   "venue_zip": "",
   "is_official": "",
   "id_obfuscated": ""
 },
 {
   "name": "Friday For Future",
   "location": "HALLSBERG Framför kommunhuset kl16-17",
   "url": "",
   "latitude": "59.0088174",
   "longitude": "15.2727144",
   "event_type_name": "FridaysForFuture",
   "start_time": "",
   "start_dt": "",
   "capacity": "",
   "id": "",
   "start-day": "2018-12-14",
   "venue_zip": "",
   "is_official": "",
   "id_obfuscated": ""
 },
 {
   "name": "Friday For Future",
   "location": "HALMSTAD rådhuset 12-14 kontakt Suzanne Näckdall och Anne-Marie Bruno",
   "url": "",
   "latitude": "56.6743748",
   "longitude": "12.8577885",
   "event_type_name": "FridaysForFuture",
   "start_time": "",
   "start_dt": "",
   "capacity": "",
   "id": "",
   "start-day": "2018-12-14",
   "venue_zip": "",
   "is_official": "",
   "id_obfuscated": ""
 },
 {
   "name": "Friday For Future",
   "location": "HÖGANÄS på torsdag utanför Kullagymnaset, På fredar utanför kommunhuset kl11-13 och kl17-18",
   "url": "",
   "latitude": "56.2006388",
   "longitude": "12.5553287",
   "event_type_name": "FridaysForFuture",
   "start_time": "",
   "start_dt": "",
   "capacity": "",
   "id": "",
   "start-day": "2018-12-14",
   "venue_zip": "",
   "is_official": "",
   "id_obfuscated": ""
 },
 {
   "name": "Friday For Future",
   "location": "JÄRFÄLLA Riddarplatsen kl16-18 kontakt Thomas Stenholm ",
   "url": "https://www.facebook.com/events/258671894800386/",
   "latitude": "59.4240065",
   "longitude": "17.8367319",
   "event_type_name": "FridaysForFuture",
   "start_time": "",
   "start_dt": "",
   "capacity": "",
   "id": "",
   "start-day": "2018-12-14",
   "venue_zip": "",
   "is_official": "",
   "id_obfuscated": ""
 },
 {
   "name": "Friday For Future",
   "location": "JÖNKÖPING utanför Rådhuset kl.12-13 ",
   "url": "https://www.facebook.com/groups/596022140815098/",
   "latitude": "57.7826137",
   "longitude": "14.1617876",
   "event_type_name": "FridaysForFuture",
   "start_time": "",
   "start_dt": "",
   "capacity": "",
   "id": "",
   "start-day": "2018-12-14",
   "venue_zip": "",
   "is_official": "",
   "id_obfuscated": ""
 },
 {
   "name": "Friday For Future",
   "location": "KARLSTAD, Stora torget kl 12-15, kontakt Krister Stål tel 073 807 19 89",
   "url": "",
   "latitude": "59.4021806",
   "longitude": "13.5114978",
   "event_type_name": "FridaysForFuture",
   "start_time": "",
   "start_dt": "",
   "capacity": "",
   "id": "",
   "start-day": "2018-12-14",
   "venue_zip": "",
   "is_official": "",
   "id_obfuscated": ""
 },
 {
   "name": "Friday For Future",
   "location": "KATRINEHOLM kl15:30–17:00 torgmöte på Stortorget ",
   "url": "https://www.facebook.com/events/323876685113521/",
   "latitude": "58.9955510999999",
   "longitude": "16.2054756",
   "event_type_name": "FridaysForFuture",
   "start_time": "",
   "start_dt": "",
   "capacity": "",
   "id": "",
   "start-day": "2018-12-14",
   "venue_zip": "",
   "is_official": "",
   "id_obfuscated": ""
 },
 {
   "name": "Friday For Future",
   "location": "LINKÖPING, Stadshuset, kl 15-17, kontakt Jenny Carlenius ",
   "url": "https://www.facebook.com/events/476146996222674/",
   "latitude": "58.410807",
   "longitude": "15.6213728",
   "event_type_name": "FridaysForFuture",
   "start_time": "",
   "start_dt": "",
   "capacity": "",
   "id": "",
   "start-day": "2018-12-14",
   "venue_zip": "",
   "is_official": "",
   "id_obfuscated": ""
 },
 {
   "name": "Friday For Future",
   "location": "LULEÅ, stadshuset, kl12-13 kontakt Elsa Rensfeldt o Emma Westerberg ",
   "url": "https://www.facebook.com/fridaysforfuturelulea/",
   "latitude": "65.584819",
   "longitude": "22.1567026",
   "event_type_name": "FridaysForFuture",
   "start_time": "",
   "start_dt": "",
   "capacity": "",
   "id": "",
   "start-day": "2018-12-14",
   "venue_zip": "",
   "is_official": "",
   "id_obfuscated": ""
 },
 {
   "name": "Friday For Future",
   "location": "LUND kl 10-13 kontakt Harald Helgesson ",
   "url": "https://www.facebook.com/groups/365873237554696/",
   "latitude": "55.7046601",
   "longitude": "13.1910073",
   "event_type_name": "FridaysForFuture",
   "start_time": "",
   "start_dt": "",
   "capacity": "",
   "id": "",
   "start-day": "2018-12-14",
   "venue_zip": "",
   "is_official": "",
   "id_obfuscated": ""
 },
 {
   "name": "Friday For Future",
   "location": "Lysekil kommunhuset kl11:30-12:30 kontakt Mari Larsson lysekilsmari@gmail.com",
   "url": "",
   "latitude": "58.2755729999999",
   "longitude": "11.435558",
   "event_type_name": "FridaysForFuture",
   "start_time": "",
   "start_dt": "",
   "capacity": "",
   "id": "",
   "start-day": "2018-12-14",
   "venue_zip": "",
   "is_official": "",
   "id_obfuscated": ""
 },
 {
   "name": "Friday For Future",
   "location": "MALMÖ, kl12-16 Kontakt: fb #Fridaysforfuture Malmö ",
   "url": "https://www.facebook.com/events/340141649868446/",
   "latitude": "55.604981",
   "longitude": "13.003822",
   "event_type_name": "FridaysForFuture",
   "start_time": "",
   "start_dt": "",
   "capacity": "",
   "id": "",
   "start-day": "2018-12-14",
   "venue_zip": "",
   "is_official": "",
   "id_obfuscated": ""
 },
 {
   "name": "Friday For Future",
   "location": "MORA Tingshusparken kl16-17 ",
   "url": "https://www.facebook.com/events/2330561767177979/",
   "latitude": "61.0065395",
   "longitude": "14.5419776999999",
   "event_type_name": "FridaysForFuture",
   "start_time": "",
   "start_dt": "",
   "capacity": "",
   "id": "",
   "start-day": "2018-12-14",
   "venue_zip": "",
   "is_official": "",
   "id_obfuscated": ""
 },
 {
   "name": "Friday For Future",
   "location": "Munkedal kommunhus kl15-17 kontakt Gunilla A. Strinning ",
   "url": "https://www.facebook.com/events/2250730378479340/",
   "latitude": "58.4715050999999",
   "longitude": "11.6801923",
   "event_type_name": "FridaysForFuture",
   "start_time": "",
   "start_dt": "",
   "capacity": "",
   "id": "",
   "start-day": "2018-12-14",
   "venue_zip": "",
   "is_official": "",
   "id_obfuscated": ""
 },
 {
   "name": "Friday For Future",
   "location": "NORA. Kommunhus 13-15 ",
   "url": "https://www.facebook.com/events/190261361812800/",
   "latitude": "59.4996340999999",
   "longitude": "14.9058011",
   "event_type_name": "FridaysForFuture",
   "start_time": "",
   "start_dt": "",
   "capacity": "",
   "id": "",
   "start-day": "2018-12-14",
   "venue_zip": "",
   "is_official": "",
   "id_obfuscated": ""
 },
 {
   "name": "Friday For Future",
   "location": "NORRKÖPING, Hörsalsparken kl15-17 ",
   "url": "https://www.facebook.com/events/270457556881021/",
   "latitude": "58.588334",
   "longitude": "16.1885189",
   "event_type_name": "FridaysForFuture",
   "start_time": "",
   "start_dt": "",
   "capacity": "",
   "id": "",
   "start-day": "2018-12-14",
   "venue_zip": "",
   "is_official": "",
   "id_obfuscated": ""
 },
 {
   "name": "Friday For Future",
   "location": "NORRTÄLJE kontakt Jörg Hellkvist ",
   "url": "https://www.facebook.com/events/1818758711580700/",
   "latitude": "59.7595841",
   "longitude": "18.7013584",
   "event_type_name": "FridaysForFuture",
   "start_time": "",
   "start_dt": "",
   "capacity": "",
   "id": "",
   "start-day": "2018-12-14",
   "venue_zip": "",
   "is_official": "",
   "id_obfuscated": ""
 },
 {
   "name": "Friday For Future",
   "location": "NYKÖPING , Stadshuset, kl15-16 kontakt Pia Björstrand (samordna Södermanlands län)",
   "url": "",
   "latitude": "58.7520732",
   "longitude": "17.0096046",
   "event_type_name": "FridaysForFuture",
   "start_time": "",
   "start_dt": "",
   "capacity": "",
   "id": "",
   "start-day": "2018-12-14",
   "venue_zip": "",
   "is_official": "",
   "id_obfuscated": ""
 },
 {
   "name": "Friday For Future",
   "location": "ÖREBRO. kl 15.-17. Kontakt: @Klimatfredag Instagram",
   "url": "",
   "latitude": "59.2752626",
   "longitude": "15.2134105",
   "event_type_name": "FridaysForFuture",
   "start_time": "",
   "start_dt": "",
   "capacity": "",
   "id": "",
   "start-day": "2018-12-14",
   "venue_zip": "",
   "is_official": "",
   "id_obfuscated": ""
 },
 {
   "name": "Friday For Future",
   "location": "ÖSTERSUND, Östersunds Rådhus, kl14-17 kontakt Joakim Karlsson ",
   "url": "https://www.facebook.com/events/254204805245644/",
   "latitude": "63.1777142",
   "longitude": "14.6414516",
   "event_type_name": "FridaysForFuture",
   "start_time": "",
   "start_dt": "",
   "capacity": "",
   "id": "",
   "start-day": "2018-12-14",
   "venue_zip": "",
   "is_official": "",
   "id_obfuscated": ""
 },
 {
   "name": "Friday For Future",
   "location": "SÄFFLE utanför stadshuset kl16-17 kontakt Magnus Larsson ",
   "url": "https://www.facebook.com/events/572767699834086/",
   "latitude": "59.132661",
   "longitude": "12.930107",
   "event_type_name": "FridaysForFuture",
   "start_time": "",
   "start_dt": "",
   "capacity": "",
   "id": "",
   "start-day": "2018-12-14",
   "venue_zip": "",
   "is_official": "",
   "id_obfuscated": ""
 },
 {
   "name": "Friday For Future",
   "location": "SIMRISHAMN framför stadshuset kl10.30-13.30 kontakt Matilda Pyk ",
   "url": "https://www.facebook.com/events/301707753772935/",
   "latitude": "55.5573959",
   "longitude": "14.3489651",
   "event_type_name": "FridaysForFuture",
   "start_time": "",
   "start_dt": "",
   "capacity": "",
   "id": "",
   "start-day": "2018-12-14",
   "venue_zip": "",
   "is_official": "",
   "id_obfuscated": ""
 },
 {
   "name": "Friday For Future",
   "location": "SKÖVDE , stadshuset, kl15-17, kontakt Maj-Lis Lindholm smajlislindholm@gmail.com ",
   "url": "https://www.facebook.com/events/357789681461098/",
   "latitude": "58.3902782",
   "longitude": "13.8461208",
   "event_type_name": "FridaysForFuture",
   "start_time": "",
   "start_dt": "",
   "capacity": "",
   "id": "",
   "start-day": "2018-12-14",
   "venue_zip": "",
   "is_official": "",
   "id_obfuscated": ""
 },
 {
   "name": "Friday For Future",
   "location": "SÖDERHAMN, Gågatan Tribunen/Biblioteket kl11-13",
   "url": "",
   "latitude": "61.3055762",
   "longitude": "17.0628102",
   "event_type_name": "FridaysForFuture",
   "start_time": "",
   "start_dt": "",
   "capacity": "",
   "id": "",
   "start-day": "2018-12-14",
   "venue_zip": "",
   "is_official": "",
   "id_obfuscated": ""
 },
 {
   "name": "Friday For Future",
   "location": "SÖDERTÄLJE kl12-13 kon Jennifer Carlie o kl14-17 kontakt Kristin Persson ",
   "url": "https://www.facebook.com/events/1931885543563414/",
   "latitude": "59.195363",
   "longitude": "17.625689",
   "event_type_name": "FridaysForFuture",
   "start_time": "",
   "start_dt": "",
   "capacity": "",
   "id": "",
   "start-day": "2018-12-14",
   "venue_zip": "",
   "is_official": "",
   "id_obfuscated": ""
 },
 {
   "name": "Friday For Future",
   "location": "STOCKHOLM Mynttorget, kl08-15 kontakt Janine OKeeffe fb #FridaysForFuture #FFF",
   "url": "",
   "latitude": "59.3267464",
   "longitude": "18.0692843",
   "event_type_name": "FridaysForFuture",
   "start_time": "",
   "start_dt": "",
   "capacity": "",
   "id": "",
   "start-day": "2018-12-14",
   "venue_zip": "",
   "is_official": "",
   "id_obfuscated": ""
 },
 {
   "name": "Friday For Future",
   "location": "TANUMSHEDE Framför kommunhuset kl14 kontakt Åsa Rehndell ",
   "url": "https://www.facebook.com/events/2032638957026052/",
   "latitude": "58.7239941",
   "longitude": "11.3252391",
   "event_type_name": "FridaysForFuture",
   "start_time": "",
   "start_dt": "",
   "capacity": "",
   "id": "",
   "start-day": "2018-12-14",
   "venue_zip": "",
   "is_official": "",
   "id_obfuscated": ""
 },
 {
   "name": "Friday For Future",
   "location": "TROLLHÄTTAN Framför kommunhuset 15.00 - 17.00 ",
   "url": "https://www.facebook.com/events/2176114909375369/",
   "latitude": "58.2812221999999",
   "longitude": "12.291991",
   "event_type_name": "FridaysForFuture",
   "start_time": "",
   "start_dt": "",
   "capacity": "",
   "id": "",
   "start-day": "2018-12-14",
   "venue_zip": "",
   "is_official": "",
   "id_obfuscated": ""
 },
 {
   "name": "Friday For Future",
   "location": "UMEÅ, Stadshuset, fredag kl11-14 Kontakt: Jens Rundberg 0702927599 ",
   "url": "https://www.facebook.com/events/177109586526818/",
   "latitude": "63.8258471",
   "longitude": "20.2630354",
   "event_type_name": "FridaysForFuture",
   "start_time": "",
   "start_dt": "",
   "capacity": "",
   "id": "",
   "start-day": "2018-12-14",
   "venue_zip": "",
   "is_official": "",
   "id_obfuscated": ""
 },
 {
   "name": "Friday For Future",
   "location": "UPPSALA Forumtorget. kl 15-17. Kontakt: Karin Holmstrand, jorden vänner SLU Klimatstudenterna ",
   "url": "https://www.facebook.com/events/149904182624633/",
   "latitude": "59.8581024",
   "longitude": "17.6402886",
   "event_type_name": "FridaysForFuture",
   "start_time": "",
   "start_dt": "",
   "capacity": "",
   "id": "",
   "start-day": "2018-12-14",
   "venue_zip": "",
   "is_official": "",
   "id_obfuscated": ""
 },
 {
   "name": "Friday For Future",
   "location": "VALLENTUNA kommunalhus, Tuna torg kl17-17.30 via Janine OKeeffe (Amelia Bendz)) ",
   "url": "",
   "latitude": "59.5347317",
   "longitude": "18.0795062",
   "event_type_name": "FridaysForFuture",
   "start_time": "",
   "start_dt": "",
   "capacity": "",
   "id": "",
   "start-day": "2018-12-14",
   "venue_zip": "",
   "is_official": "",
   "id_obfuscated": ""
 },
 {
   "name": "Friday For Future",
   "location": "VÄSTERÅS torggatan vid fontänen kl15-17 kontakt Lisbeth Garde",
   "url": "",
   "latitude": "59.6099004999999",
   "longitude": "16.5448092",
   "event_type_name": "FridaysForFuture",
   "start_time": "",
   "start_dt": "",
   "capacity": "",
   "id": "",
   "start-day": "2018-12-14",
   "venue_zip": "",
   "is_official": "",
   "id_obfuscated": ""
 },
 {
   "name": "Friday For Future",
   "location": "VÄSTERVIK, Stadshuset 12-13, kontakt Göran Nordström",
   "url": "",
   "latitude": "57.7577155999999",
   "longitude": "16.6369759",
   "event_type_name": "FridaysForFuture",
   "start_time": "",
   "start_dt": "",
   "capacity": "",
   "id": "",
   "start-day": "2018-12-14",
   "venue_zip": "",
   "is_official": "",
   "id_obfuscated": ""
 },
 {
   "name": "Friday For Future",
   "location": "VÄXJÖ kl 15-16",
   "url": "",
   "latitude": "56.8790044",
   "longitude": "14.8058523",
   "event_type_name": "FridaysForFuture",
   "start_time": "",
   "start_dt": "",
   "capacity": "",
   "id": "",
   "start-day": "2018-12-14",
   "venue_zip": "",
   "is_official": "",
   "id_obfuscated": ""
 },
 {
   "name": "Friday For Future",
   "location": "VIMMERBY Contact: Ingvar Edlund o Laurent Mertz ",
   "url": "https://www.facebook.com/groups/288419755103990/",
   "latitude": "57.6690339",
   "longitude": "15.858857",
   "event_type_name": "FridaysForFuture",
   "start_time": "",
   "start_dt": "",
   "capacity": "",
   "id": "",
   "start-day": "2018-12-14",
   "venue_zip": "",
   "is_official": "",
   "id_obfuscated": ""
 },
 {
   "name": "Friday For Future",
   "location": "VISBY Ostercentrum kl11:30-14 kontakt Alfred Westh ",
   "url": "https://www.facebook.com/events/346676762763537/",
   "latitude": "57.6383468999999",
   "longitude": "18.2999613",
   "event_type_name": "FridaysForFuture",
   "start_time": "",
   "start_dt": "",
   "capacity": "",
   "id": "",
   "start-day": "2018-12-14",
   "venue_zip": "",
   "is_official": "",
   "id_obfuscated": ""
 },
 {
   "name": "Friday For Future",
   "location": "AUST ADELAIDE dec 15 South Australian Parliament.",
   "url": "",
   "latitude": "-34.9284989",
   "longitude": "138.6007456",
   "event_type_name": "FridaysForFuture",
   "start_time": "",
   "start_dt": "",
   "capacity": "",
   "id": "",
   "start-day": "2018-12-14",
   "venue_zip": "",
   "is_official": "",
   "id_obfuscated": ""
 },
 {
   "name": "Friday For Future",
   "location": "AUST BRISBANE, CBD Dec 12 contact Charlie Wood",
   "url": "",
   "latitude": "-27.4697707",
   "longitude": "153.0251235",
   "event_type_name": "FridaysForFuture",
   "start_time": "",
   "start_dt": "",
   "capacity": "",
   "id": "",
   "start-day": "2018-12-14",
   "venue_zip": "",
   "is_official": "",
   "id_obfuscated": ""
 },
 {
   "name": "Friday For Future",
   "location": "AUST MELBOURNE Moonee Ponds Dec 12 contact Charlie Wood",
   "url": "",
   "latitude": "-37.765",
   "longitude": "144.92",
   "event_type_name": "FridaysForFuture",
   "start_time": "",
   "start_dt": "",
   "capacity": "",
   "id": "",
   "start-day": "2018-12-14",
   "venue_zip": "",
   "is_official": "",
   "id_obfuscated": ""
 },
 {
   "name": "Friday For Future",
   "location": "AUST SYDNEY, Redfern Dec 12 contact Charlie Wood",
   "url": "",
   "latitude": "-33.8933399999999",
   "longitude": "151.20461",
   "event_type_name": "FridaysForFuture",
   "start_time": "",
   "start_dt": "",
   "capacity": "",
   "id": "",
   "start-day": "2018-12-14",
   "venue_zip": "",
   "is_official": "",
   "id_obfuscated": ""
 },
 {
   "name": "Friday For Future",
   "location": "Denmark, Christiansborg friday 8-16, 30/11, contact Jennie Kaae Ferrara",
   "url": "",
   "latitude": "55.6762316",
   "longitude": "12.5805143",
   "event_type_name": "FridaysForFuture",
   "start_time": "",
   "start_dt": "",
   "capacity": "",
   "id": "",
   "start-day": "2018-12-14",
   "venue_zip": "",
   "is_official": "",
   "id_obfuscated": ""
 },
 {
   "name": "Friday For Future",
   "location": "Denmark, Copenhagen, Rigsdagsgården. Thurs 8.30-10 Contact Simon Kran Christensen 7 places",
   "url": "",
   "latitude": "55.675588",
   "longitude": "12.5809148",
   "event_type_name": "FridaysForFuture",
   "start_time": "",
   "start_dt": "",
   "capacity": "",
   "id": "",
   "start-day": "2018-12-14",
   "venue_zip": "",
   "is_official": "",
   "id_obfuscated": ""
 },
 {
   "name": "Friday For Future",
   "location": "Denmark, Svendborg, contact: Malin Lindskog",
   "url": "",
   "latitude": "55.067434",
   "longitude": "10.607282",
   "event_type_name": "FridaysForFuture",
   "start_time": "",
   "start_dt": "",
   "capacity": "",
   "id": "",
   "start-day": "2018-12-14",
   "venue_zip": "",
   "is_official": "",
   "id_obfuscated": ""
 },
 {
   "name": "Friday For Future",
   "location": "FINLAND Helsinki, Parliament House. Time: 9-12, Contact: Jaana Lahti",
   "url": "",
   "latitude": "60.17257",
   "longitude": "24.9329753",
   "event_type_name": "FridaysForFuture",
   "start_time": "",
   "start_dt": "",
   "capacity": "",
   "id": "",
   "start-day": "2018-12-14",
   "venue_zip": "",
   "is_official": "",
   "id_obfuscated": ""
 },
 {
   "name": "Friday For Future",
   "location": "Germany, Berlin",
   "url": "",
   "latitude": "52.5200065999999",
   "longitude": "13.404954",
   "event_type_name": "FridaysForFuture",
   "start_time": "",
   "start_dt": "",
   "capacity": "",
   "id": "",
   "start-day": "2018-12-14",
   "venue_zip": "",
   "is_official": "",
   "id_obfuscated": ""
 },
 {
   "name": "Friday For Future",
   "location": "Germany, Leipzig",
   "url": "",
   "latitude": "51.3396955",
   "longitude": "12.3730747",
   "event_type_name": "FridaysForFuture",
   "start_time": "",
   "start_dt": "",
   "capacity": "",
   "id": "",
   "start-day": "2018-12-14",
   "venue_zip": "",
   "is_official": "",
   "id_obfuscated": ""
 },
 {
   "name": "Friday For Future",
   "location": "Netherlands, Rotterdam and Other. Balder Claassen",
   "url": "",
   "latitude": "51.9244201",
   "longitude": "4.4777326",
   "event_type_name": "FridaysForFuture",
   "start_time": "",
   "start_dt": "",
   "capacity": "",
   "id": "",
   "start-day": "2018-12-14",
   "venue_zip": "",
   "is_official": "",
   "id_obfuscated": ""
 },
 {
   "name": "Friday For Future",
   "location": "Netherlands, The Hague Contact: Pinkpolitek",
   "url": "",
   "latitude": "52.0704978",
   "longitude": "4.3006999",
   "event_type_name": "FridaysForFuture",
   "start_time": "",
   "start_dt": "",
   "capacity": "",
   "id": "",
   "start-day": "2018-12-14",
   "venue_zip": "",
   "is_official": "",
   "id_obfuscated": ""
 },
 {
   "name": "Friday For Future",
   "location": "Netherlands, Utreckt, Zeist Contact Eleanor Platt",
   "url": "",
   "latitude": "52.0906015",
   "longitude": "5.2332526",
   "event_type_name": "FridaysForFuture",
   "start_time": "",
   "start_dt": "",
   "capacity": "",
   "id": "",
   "start-day": "2018-12-14",
   "venue_zip": "",
   "is_official": "",
   "id_obfuscated": ""
 },
 {
   "name": "Friday For Future",
   "location": "Cambridge",
   "url": "",
   "latitude": "52.205337",
   "longitude": "0.121817",
   "event_type_name": "FridaysForFuture",
   "start_time": "",
   "start_dt": "",
   "capacity": "",
   "id": "",
   "start-day": "2018-12-14",
   "venue_zip": "",
   "is_official": "",
   "id_obfuscated": ""
 },
 {
   "name": "Friday For Future",
   "location": "Marlborough",
   "url": "",
   "latitude": "42.3459271",
   "longitude": "-71.5522874",
   "event_type_name": "FridaysForFuture",
   "start_time": "",
   "start_dt": "",
   "capacity": "",
   "id": "",
   "start-day": "2018-12-14",
   "venue_zip": "",
   "is_official": "",
   "id_obfuscated": ""
 },
 {
   "name": "Friday For Future",
   "location": "Norwich outside St Peter Mancroft church, dec 15, 4pm",
   "url": "",
   "latitude": "52.6277696",
   "longitude": "1.2925742",
   "event_type_name": "FridaysForFuture",
   "start_time": "",
   "start_dt": "",
   "capacity": "",
   "id": "",
   "start-day": "2018-12-14",
   "venue_zip": "",
   "is_official": "",
   "id_obfuscated": ""
 },
 {
   "name": "Friday For Future",
   "location": "10 Downing Street, London, contact #eXtinctionRebellion",
   "url": "",
   "latitude": "51.5033635",
   "longitude": "-0.1276248",
   "event_type_name": "FridaysForFuture",
   "start_time": "",
   "start_dt": "2019-11-01",
   "capacity": "",
   "id": "",
   "start-day": "2018-12-14",
   "venue_zip": "",
   "is_official": "",
   "id_obfuscated": ""
 },
 {
   "name": "Friday For Future",
   "location": "Town Hall Manchester, Time:12-14, Contact: Allan Challenger",
   "url": "",
   "latitude": "53.4807593",
   "longitude": "-2.2426305",
   "event_type_name": "FridaysForFuture",
   "start_time": "",
   "start_dt": "",
   "capacity": "",
   "id": "",
   "start-day": "2018-12-14",
   "venue_zip": "",
   "is_official": "",
   "id_obfuscated": ""
 },





/*Marches*/
   {
         "longitude":"2.3488",
         "url":"https://www.facebook.com/events/340482030052960/",
         "event_type_name":"Marches",
         "start_time":"11:00:00",
         "start_dt":"2018-12-08 11:00:00",
         "name":"Climate Alarm - Paris",
         "location":"Non déterminé",
         "capacity":"0",
         "id":"230901",
         "start_day":"2018-12-08",
         "venue_zip":"",
         "latitude":"48.8534",
         "is_official":"1",
         "id_obfuscated":"gpg5bt"
      },
         {
         "longitude":"2.3488",
         "url":"https://www.facebook.com/events/544469292631876/",
         "event_type_name":"Marches",
         "start_time":"11:00:00",
         "start_dt":"2018-12-08 11:00:00",
         "name":"Poussette&Doudous Pour le climat - Paris",
         "location":"Non déterminé",
         "capacity":"0",
         "id":"230901",
         "start_day":"2018-12-08",
         "venue_zip":"",
         "latitude":"48.8534",
         "is_official":"1",
         "id_obfuscated":"gpg5bt"
      },
      {
         "longitude":"5.4497",  
         "url":"https://www.facebook.com/events/571890319920171/",
         "event_type_name":"Marches",
         "start_time":"14:00:00",
         "start_dt":"2018-12-08 14:00:00",
         "name":"Climate Alarm - Aix-en-Provence",
         "location":"Aix-en-Provence, France",
         "capacity":"0",
         "id":"230978",
         "start_day":"2018-12-08",
         "venue_zip":"",
         "latitude":"43.5283",
         "is_official":"1",
         "id_obfuscated":"gpg5bt"
      },
      {
         "longitude":"2.1486413",  
         "url":"https://www.facebook.com/events/377405346158161/",
         "event_type_name":"Marches",
         "start_time":"14:00:00",
         "start_dt":"2018-12-08 14:00:00",
         "name":"Climate Alarm - Albi",
         "location":"Albi, France",
         "capacity":"0",
         "id":"230902",
         "start_day":"2018-12-08",
         "venue_zip":"",
         "latitude":"43.9250853",
         "is_official":"1",
         "id_obfuscated":"gpg5bt"
      },
       {
         "longitude":"2.3",
         "url":"https://www.facebook.com/events/632419823827121/",
         "event_type_name":"Marches",
         "start_time":"15:00:00",
         "start_dt":"2018-12-08 15:00:00",
         "name":"Climate Alarm - Amiens",
         "location":"Amiens, France",
         "capacity":"0",
         "id":"230911",
         "start_day":"2018-12-08",
         "venue_zip":"",
         "latitude":"49.9",
         "is_official":"1",
         "id_obfuscated":"gpg5bt"
      },
      {
         "longitude":"-0.55",
         "url":"https://www.facebook.com/events/342163226551570/",
         "event_type_name":"Marches",
         "start_time":"15:00:00",
         "start_dt":"2018-12-08 15:00:00",
         "name":"Climate Alarm - Angers",
         "location":"Angers, France",
         "capacity":"0",
         "id":"230912",
         "start_day":"2018-12-08",
         "venue_zip":"",
         "latitude":"47.4667",
         "is_official":"1",
         "id_obfuscated":"gpg5bt"
      },
     {
         "longitude":"0.15",
         "url":"https://www.facebook.com/events/963243080528752/",
         "event_type_name":"Marches",
         "start_time":"14:00:00",
         "start_dt":"2018-12-08 14:00:00",
         "name":"Climate Alarm - Angoulême",
         "location":"Angoulême, France",
         "capacity":"0",
         "id":"230959",
         "start_day":"2018-12-08",
         "venue_zip":"",
         "latitude":"45.65",
         "is_official":"1",
         "id_obfuscated":"gpg5bt"
      }, 
     {
         "longitude":"2.25",
         "url":"https://www.facebook.com/events/1838096812906264/",
         "event_type_name":"Marches",
         "start_time":"14:00:00",
         "start_dt":"2018-12-08 14:00:00",
         "name":"Climate Alarm - Argenteuil",
         "location":"Argenteuil, France",
         "capacity":"0",
         "id":"230923",
         "start_day":"2018-12-08",
         "venue_zip":"",
         "latitude":"48.944",
         "is_official":"1",
         "id_obfuscated":"gpg5bt"
      },
      {
         "longitude":"4.627730",  
         "url":"https://www.facebook.com/events/501713613676346/",
         "event_type_name":"Marches",
         "start_time":"11:00:00",
         "start_dt":"2018-12-08 11:00:00",
         "name":"Climate Alarm - Arles",
         "location":"Arles, France",
         "capacity":"0",
         "id":"230902",
         "start_day":"2018-12-08",
         "venue_zip":"",
         "latitude":"43.67527",
         "is_official":"1",
         "id_obfuscated":"gpg5bt"
      },
      {
         "longitude":"4.627730",  
         "url":"https://www.facebook.com/groups/2375359032490622/",
         "event_type_name":"Marches",
         "start_time":"11:00:00",
         "start_dt":"2018-12-08 11:00:00",
         "name":"Climate Alarm - Arles",
         "location":"Arles, France",
         "capacity":"0",
         "id":"230954",
         "start_day":"2018-12-08",
         "venue_zip":"",
         "latitude":"43.67527",
         "is_official":"1",
         "id_obfuscated":"gpg5bt"
      },
       {
         "longitude":"4.3899",  
         "url":"https://www.facebook.com/events/1083895785103950/",
         "event_type_name":"Marches",
         "start_time":"11:00:00",
         "start_dt":"2018-12-08 11:00:00",
         "name":"Climate Alarm - Aubenas",
         "location":"Aubenas, France",
         "capacity":"0",
         "id":"2309056",
         "start_day":"2018-12-08",
         "venue_zip":"",
         "latitude":"44.6201",
         "is_official":"1",
         "id_obfuscated":"gpg5bt"
      },
      {
         "longitude":"3.57448",  
         "url":"https://www.facebook.com/events/2293210097374509/",
         "event_type_name":"Marches",
         "start_time":"11:00:00",
         "start_dt":"2018-12-08 11:00:00",
         "name":"Climate Alarm - Auxerre",
         "location":"Auxerre, France",
         "capacity":"0",
         "id":"2369056",
         "start_day":"2018-12-08",
         "venue_zip":"",
         "latitude":"47.7983",
         "is_official":"1",
         "id_obfuscated":"gpg5bt"
      },
       {
         "longitude":"-1.47457",  
         "url":"https://www.facebook.com/events/535379376874569/",
         "event_type_name":"Marches",
         "start_time":"11:00:00",
         "start_dt":"2018-12-08 11:00:00",
         "name":"Climate Alarm - Bayonne",
         "location":"Bayonne, France",
         "capacity":"0",
         "id":"2309051",
         "start_day":"2018-12-08",
         "venue_zip":"",
         "latitude":"43.4934",
         "is_official":"1",
         "id_obfuscated":"gpg5bt"
      },
      {
         "longitude":"1.61476",
         "url":"https://www.facebook.com/events/577558846008294/",
         "event_type_name":"Marches",
         "start_time":"15:00:00",
         "start_dt":"2018-12-08 15:00:00",
         "name":"Climate Alarm - Boulogne sur mer",
         "location":"Boulogne sur mer, France",
         "capacity":"0",
         "id":"230785",
         "start_day":"2018-12-08",
         "venue_zip":"",
         "latitude":"50.72562",
         "is_official":"1",
         "id_obfuscated":"gpg5bt"
      },
      {
         "longitude":"5.22552",
         "url":"https://www.facebook.com/events/2088709351443185/",
         "event_type_name":"Marches",
         "start_time":"15:00:00",
         "start_dt":"2018-12-08 15:00:00",
         "name":"Climate Alarm - Bourg-en-bresse",
         "location":"Bourg-en-bresse, France",
         "capacity":"0",
         "id":"230784",
         "start_day":"2018-12-08",
         "venue_zip":"",
         "latitude":"46.2051",
         "is_official":"1",
         "id_obfuscated":"gpg5bt"
      },
{
         "longitude":"1.33",
         "url":"https://www.facebook.com/events/485364671949397/",
         "event_type_name":"Marches",
         "start_time":"15:00:00",
         "start_dt":"2018-12-08 15:00:00",
         "name":"Climate Alarm - Blois",
         "location":"Blois, France",
         "capacity":"0",
         "id":"230945",
         "start_day":"2018-12-08",
         "venue_zip":"",
         "latitude":"47.5859",
         "is_official":"1",
         "id_obfuscated":"gpg5bt"
      },
      {
         "longitude":"-0.5805",
         "url":"https://www.facebook.com/events/346142159473427/",
         "event_type_name":"Marches",
         "start_time":"11:00:00",
         "start_dt":"2018-12-08 11:00:00",
         "name":"Climate Alarm - Bordeaux",
         "location":"Bordeaux, France",
         "capacity":"0",
         "id":"230902",
         "start_day":"2018-12-08",
         "venue_zip":"",
         "latitude":"44.8404",
         "is_official":"1",
         "id_obfuscated":"gpg5bt"
      },
      {
         "longitude":"-4.4863",
         "url":"https://www.facebook.com/events/487200565109797/",
         "event_type_name":"Marches",
         "start_time":"11:00:00",
         "start_dt":"2018-12-08 11:00:00",
         "name":"Climate Alarm - Brest",
         "location":"Brest, France",
         "capacity":"0",
         "id":"231902",
         "start_day":"2018-12-08",
         "venue_zip":"",
         "latitude":"48.3903",
         "is_official":"1",
         "id_obfuscated":"gpg5bt"
      },
      {
         "longitude":"2.35597",
         "url":"https://www.facebook.com/events/534348000369842/",
         "event_type_name":"Marches",
         "start_time":"11:00:00",
         "start_dt":"2018-12-08 11:00:00",
         "name":"Climate Alarm - Carcassonne",
         "location":"Carcassonne, France",
         "capacity":"0",
         "id":"231902",
         "start_day":"2018-12-08",
         "venue_zip":"",
         "latitude":"43.2126",
         "is_official":"1",
         "id_obfuscated":"gpg5bt"
      },
      {
         "longitude":"4.72069",
         "url":"https://www.facebook.com/events/336834623749070/",
         "event_type_name":"Marches",
         "start_time":"11:00:00",
         "start_dt":"2018-12-08 11:00:00",
         "name":"Climate Alarm - Charleville Mezières",
         "location":"Charleville Mezières, France",
         "capacity":"0",
         "id":"230907",
         "start_day":"2018-12-08",
         "venue_zip":"",
         "latitude":"49.7735",
         "is_official":"1",
         "id_obfuscated":"gpg5bt"
      },
      {
         "longitude":"2.82248",
         "url":"https://www.facebook.com/events/557373844715218/",
         "event_type_name":"Marches",
         "start_time":"11:00:00",
         "start_dt":"2018-12-08 11:00:00",
         "name":"Climate Alarm - Compiègne",
         "location":"Compiègne, France",
         "capacity":"0",
         "id":"232907",
         "start_day":"2018-12-08",
         "venue_zip":"",
         "latitude":"49.41577",
         "is_official":"1",
         "id_obfuscated":"gpg5bt"
      },
      {
         "longitude":"1.15094",
         "url":"https://www.facebook.com/events/114175466157214/",
         "event_type_name":"Marches",
         "start_time":"11:00:00",
         "start_dt":"2018-12-08 11:00:00",
         "name":"Climate Alarm - Evreux",
         "location":"Evreux, France",
         "capacity":"0",
         "id":"230907",
         "start_day":"2018-12-08",
         "venue_zip":"",
         "latitude":"49.02454",
         "is_official":"1",
         "id_obfuscated":"gpg5bt"
      },
      {
         "longitude":"5.7167",
         "url":"https://www.facebook.com/events/2386206288273423/",
         "event_type_name":"Marches",
         "start_time":"11:00:00",
         "start_dt":"2018-12-08 11:00:00",
         "name":"Climate Alarm - Grenoble",
         "location":"Grenoble, France",
         "capacity":"0",
         "id":"230907",
         "start_day":"2018-12-08",
         "venue_zip":"",
         "latitude":"45.1667",
         "is_official":"1",
         "id_obfuscated":"gpg5bt"
      },
      {
         "longitude":"-1.15113",
         "url":"https://www.facebook.com/events/257898164916662/",
         "event_type_name":"Marches",
         "start_time":"15:00:00",
         "start_dt":"2018-12-08 15:00:00",
         "name":"Climate Alarm - La Rochelle",
         "location":"La Rochelle, France",
         "capacity":"0",
         "id":"130924",
         "start_day":"2018-12-08",
         "venue_zip":"",
         "latitude":"46.1603",
         "is_official":"1",
         "id_obfuscated":"gpg5bt"
      },
      {
         "longitude":"0.1065",
         "url":"https://www.facebook.com/events/947927408741282/",
         "event_type_name":"Marches",
         "start_time":"15:00:00",
         "start_dt":"2018-12-08 15:00:00",
         "name":"Climate Alarm - Le Havre",
         "location":"Le Havre, France",
         "capacity":"0",
         "id":"131124",
         "start_day":"2018-12-08",
         "venue_zip":"",
         "latitude":"49.4925",
         "is_official":"1",
         "id_obfuscated":"gpg5bt"
      },
      {
         "longitude":"1.2617",
         "url":"https://www.facebook.com/events/1200891083399515/",
         "event_type_name":"Marches",
         "start_time":"15:00:00",
         "start_dt":"2018-12-08 15:00:00",
         "name":"Climate Alarm - Limoges",
         "location":"Limoges, France",
         "capacity":"0",
         "id":"132124",
         "start_day":"2018-12-08",
         "venue_zip":"",
         "latitude":"45.8285",
         "is_official":"1",
         "id_obfuscated":"gpg5bt"
      },
           {
         "longitude":"-1.36166",
         "url":"https://www.facebook.com/events/482380075587111/",
         "event_type_name":"Marches",
         "start_time":"15:00:00",
         "start_dt":"2018-12-08 15:00:00",
         "name":"Marche pour le climat - Avranches",
         "location":"Avranches, France",
         "capacity":"0",
         "id":"132124",
         "start_day":"2018-12-08",
         "venue_zip":"",
         "latitude":"48.6868",
         "is_official":"1",
         "id_obfuscated":"gpg5bt"
      },
      {
         "longitude":"0.22927",
         "url":"https://www.facebook.com/groups/364641467413174/",
         "event_type_name":"Marches",
         "start_time":"15:00:00",
         "start_dt":"2018-12-08 15:00:00",
         "name":"Climate Alarm - Lisieux",
         "location":"Lisieux, France",
         "capacity":"0",
         "id":"132124",
         "start_day":"2018-12-08",
         "venue_zip":"",
         "latitude":"49.14659",
         "is_official":"1",
         "id_obfuscated":"gpg5bt"
      },
      {
         "longitude":"4.8345",
         "url":"https://www.facebook.com/events/309351786335650/",
         "event_type_name":"Marches",
         "start_time":"15:00:00",
         "start_dt":"2018-12-08 15:00:00",
         "name":"Climate Alarm - Lyon",
         "location":"Lyon, France",
         "capacity":"0",
         "id":"132224",
         "start_day":"2018-12-08",
         "venue_zip":"",
         "latitude":"45.7676",
         "is_official":"1",
         "id_obfuscated":"gpg5bt"
      },
      {
         "longitude":"5.3811",
         "url":"https://www.facebook.com/events/1877597305650005/",
         "event_type_name":"Marches",
         "start_time":"11:30:00",
         "start_dt":"2018-12-08 11:30:00",
         "name":"Climate Alarm - Marseille",
         "location":"Marseille, France",
         "capacity":"0",
         "id":"230944",
         "start_day":"2018-12-08",
         "venue_zip":"",
         "latitude":"43.2969",
         "is_official":"1",
         "id_obfuscated":"gpg5bt"
      },
      {
         "longitude":"6.1727",
         "url":"https://www.facebook.com/events/2184111578478320/",
         "event_type_name":"Marches",
         "start_time":"11:30:00",
         "start_dt":"2018-12-08 11:30:00",
         "name":"Climate Alarm - Metz",
         "location":"Metz, France",
         "capacity":"0",
         "id":"231147",
         "start_day":"2018-12-08",
         "venue_zip":"",
         "latitude":"49.1191",
         "is_official":"1",
         "id_obfuscated":"gpg5bt"
      },
      {
         "longitude":"4.7509",
         "url":"https://www.facebook.com/events/1366722196798290/",
         "event_type_name":"Marches",
         "start_time":"11:30:00",
         "start_dt":"2018-12-08 11:30:00",
         "name":"Climate Alarm - Montélimar",
         "location":"Montélimar, France",
         "capacity":"0",
         "id":"230947",
         "start_day":"2018-12-08",
         "venue_zip":"",
         "latitude":"44.5587",
         "is_official":"1",
         "id_obfuscated":"gpg5bt"
      },
      {
         "longitude":"3.8772",
         "url":"https://www.facebook.com/events/940904046108417/",
         "event_type_name":"Marches",
         "start_time":"13:30:00",
         "start_dt":"2018-12-08 13:30:00",
         "name":"Climate Alarm - Montpellier",
         "location":"Montpellier, France",
         "capacity":"0",
         "id":"230931",
         "start_day":"2018-12-08",
         "venue_zip":"",
         "latitude":"43.6109",
         "is_official":"1",
         "id_obfuscated":"gpg5bt"
      },
      {
         "longitude":"3.335",
         "url":"https://www.facebook.com/events/1417096901726777/",
         "event_type_name":"Marches",
         "start_time":"14:00:00",
         "start_dt":"2018-12-08 14:00:00",
         "name":"Climate Alarm - Moulins",
         "location":"Moulins, France",
         "capacity":"0",
         "id":"230922",
         "start_day":"2018-12-08",
         "venue_zip":"",
         "latitude":"46.5662",
         "is_official":"1",
         "id_obfuscated":"gpg5bt"
      },
{
         "longitude":"7.3358",
         "url":"https://www.facebook.com/events/1961680483910423/",
         "event_type_name":"Marches",
         "start_time":"14:00:00",
         "start_dt":"2018-12-08 14:00:00",
         "name":"Climate Alarm - Mulhouse",
         "location":"Mulhouse, France",
         "capacity":"0",
         "id":"230921",
         "start_day":"2018-12-08",
         "venue_zip":"",
         "latitude":"47.7508",
         "is_official":"1",
         "id_obfuscated":"gpg5bt"
      },
      {
         "longitude":"-1.5534",
         "url":"https://www.facebook.com/events/400309760711541/",
         "event_type_name":"Marches",
         "start_time":"14:00:00",
         "start_dt":"2018-12-08 14:00:00",
         "name":"Climate Alarm - Nantes",
         "location":"Nantes, France",
         "capacity":"0",
         "id":"231921",
         "start_day":"2018-12-08",
         "venue_zip":"",
         "latitude":"47.2173",
         "is_official":"1",
         "id_obfuscated":"gpg5bt"
      },
      {
         "longitude":"7.2661",
         "url":"https://www.facebook.com/events/290963651746730/",
         "event_type_name":"Marches",
         "start_time":"14:00:00",
         "start_dt":"2018-12-08 14:00:00",
         "name":"Climate Alarm - Nice",
         "location":"Nice, France",
         "capacity":"0",
         "id":"231921",
         "start_day":"2018-12-08",
         "venue_zip":"",
         "latitude":"43.7031",
         "is_official":"1",
         "id_obfuscated":"gpg5bt"
      },
      {
         "longitude":"3.2428",
         "url":"https://www.facebook.com/events/571689599931780/",
         "event_type_name":"Marches",
         "start_time":"14:00:00",
         "start_dt":"2018-12-08 14:00:00",
         "name":"Climate Alarm - Orchies",
         "location":"Orchies, France",
         "capacity":"0",
         "id":"230921",
         "start_day":"2018-12-08",
         "venue_zip":"",
         "latitude":"50.4745",
         "is_official":"1",
         "id_obfuscated":"gpg5bt"
      }, 
      {
         "longitude":"1.90392",
         "url":"https://www.facebook.com/events/741229456209923/",
         "event_type_name":"Marches",
         "start_time":"14:00:00",
         "start_dt":"2018-12-08 14:00:00",
         "name":"Climate Alarm - Orléans",
         "location":"Orléans, France",
         "capacity":"0",
         "id":"233921",
         "start_day":"2018-12-08",
         "venue_zip":"",
         "latitude":"47.9014",
         "is_official":"1",
         "id_obfuscated":"gpg5bt"
      }, 
      {
         "longitude":"-0.3667",
         "url":"https://www.facebook.com/events/325496358244472/",
         "event_type_name":"Marches",
         "start_time":"14:00:00",
         "start_dt":"2018-12-08 14:00:00",
         "name":"Climate Alarm - Pau",
         "location":"Pau, France",
         "capacity":"0",
         "id":"231921",
         "start_day":"2018-12-08",
         "venue_zip":"",
         "latitude":"43.3",
         "is_official":"1",
         "id_obfuscated":"gpg5bt"
      },
      
      {
         "longitude":"2.89412",
         "url":"https://www.facebook.com/events/272029806812074/",
         "event_type_name":"Marches",
         "start_time":"14:00:00",
         "start_dt":"2018-12-08 14:00:00",
         "name":"Climate Alarm - Perpignan",
         "location":"Perpignan, France",
         "capacity":"0",
         "id":"231941",
         "start_day":"2018-12-08",
         "venue_zip":"",
         "latitude":"42.7015",
         "is_official":"1",
         "id_obfuscated":"gpg5bt"
      },
   {
         "longitude":"-1.6743",
         "url":"https://www.facebook.com/events/324248818129039/",
         "event_type_name":"Marches",
         "start_time":"14:00:00",
         "start_dt":"2018-12-08 14:00:00",
         "name":"Cliamte Alarm - Rennes",
         "location":"Rennes, France",
         "capacity":"0",
         "id":"230916",
         "start_day":"2018-12-08",
         "venue_zip":"",
         "latitude":"48.112",
         "is_official":"1",
         "id_obfuscated":"gpg5bt"
      },  
      {
         "longitude":"4.03309",
         "url":"https://www.facebook.com/events/721763284855144/",
         "event_type_name":"Marches",
         "start_time":"14:00:00",
         "start_dt":"2018-12-08 14:00:00",
         "name":"Cliamte Alarm - Reims",
         "location":"Reims, France",
         "capacity":"0",
         "id":"231916",
         "start_day":"2018-12-08",
         "venue_zip":"",
         "latitude":"49.25659",
         "is_official":"1",
         "id_obfuscated":"gpg5bt"
      }, 
      {
         "longitude":"4.07269",
         "url":"https://www.facebook.com/events/908550399341288/",
         "event_type_name":"Marches",
         "start_time":"14:00:00",
         "start_dt":"2018-12-08 14:00:00",
         "name":"Climate Alarm - Roanne",
         "location":"Roanne, France",
         "capacity":"0",
         "id":"230926",
         "start_day":"2018-12-08",
         "venue_zip":"",
         "latitude":"46.0344",
         "is_official":"1",
         "id_obfuscated":"gpg5bt"
      },

      {
         "longitude":"4.07269",
         "url":"https://www.facebook.com/marchepourleclimatroanne/",
         "event_type_name":"Marches",
         "start_time":"14:00:00",
         "start_dt":"2018-12-08 14:00:00",
         "name":"Marche pour le climat (page facebook)",
         "location":"Roanne, France",
         "capacity":"0",
         "id":"230926",
         "start_day":"2018-12-08",
         "venue_zip":"",
         "latitude":"46.0344",
         "is_official":"1",
         "id_obfuscated":"gpg5bt"
      },

      {
         "longitude":"-2.7684",
         "url":"https://www.facebook.com/events/945137729013165/",
         "event_type_name":"Marches",
         "start_time":"9:00:00",
         "start_dt":"2018-12-08 9:00:00",
         "name":"Climate Alarm - Saint Brieuc",
         "location":"Saint Brieuc, France",
         "capacity":"0",
         "id":"236927",
         "start_day":"2018-12-08",
         "venue_zip":"",
         "latitude":"48.5151",
         "is_official":"1",
         "id_obfuscated":"gpg5bt"
      },
      {
         "longitude":"6.94884",
         "url":"https://www.facebook.com/events/329085477671506/",
         "event_type_name":"Marches",
         "start_time":"9:00:00",
         "start_dt":"2018-12-08 9:00:00",
         "name":"Climate Alarm - Saint-Dié-des-Vosges",
         "location":"Saint-Dié-des-Vosges, France",
         "capacity":"0",
         "id":"232927",
         "start_day":"2018-12-08",
         "venue_zip":"",
         "latitude":"48.2835",
         "is_official":"1",
         "id_obfuscated":"gpg5bt"
      },
      {
         "longitude":"4.38717",
         "url":"https://www.facebook.com/events/2124039551257537/",
         "event_type_name":"Marches",
         "start_time":"9:00:00",
         "start_dt":"2018-12-08 9:00:00",
         "name":"Climate Alarm - Saint Etienne",
         "location":"Saint Etienne, France",
         "capacity":"0",
         "id":"230927",
         "start_day":"2018-12-08",
         "venue_zip":"",
         "latitude":"45.43969",
         "is_official":"1",
         "id_obfuscated":"gpg5bt"
      },
      {
         "longitude":"-2.0167",
         "url":"https://www.facebook.com/events/1144397912390210/",
         "event_type_name":"Marches",
         "start_time":"14:00:00",
         "start_dt":"2018-12-08 14:00:00",
         "name":"Climate Alarm - Saint-Malo",
         "location":"Saint-Malo, France",
         "capacity":"0",
         "id":"230919",
         "start_day":"2018-12-08",
         "venue_zip":"",
         "latitude":"48.65",
         "is_official":"1",
         "id_obfuscated":"gpg5bt"
      },
      {
         "longitude":"-0.629933",
         "url":"https://www.facebook.com/events/1967374956691053/",
         "event_type_name":"Marches",
         "start_time":"14:00:00",
         "start_dt":"2018-12-08 14:00:00",
         "name":"Climate Alarm - Saintes",
         "location":"Saintes, France",
         "capacity":"0",
         "id":"231919",
         "start_day":"2018-12-08",
         "venue_zip":"",
         "latitude":"45.742",
         "is_official":"1",
         "id_obfuscated":"gpg5bt"
      },
      {
         "longitude":"2.080712299999959",
         "url":"https://www.facebook.com/events/486467295181427/",
         "event_type_name":"Marches",
         "start_time":"14:00:00",
         "start_dt":"2018-12-08 14:00:00",
         "name":"Climate Alarm - Beauvais",
         "location":"Beauvais, France",
         "capacity":"0",
         "id":"237919",
         "start_day":"2018-12-08",
         "venue_zip":"",
         "latitude":"49.42953869999999",
         "is_official":"1",
         "id_obfuscated":"gpg5bt"
      },
      {
         "longitude":"2.21903",
         "url":"https://www.facebook.com/events/2161621797222783/",
         "event_type_name":"Marches",
         "start_time":"14:00:00",
         "start_dt":"2018-12-08 14:00:00",
         "name":"Climate Alarm - Suresnes",
         "location":"Suresnes, France",
         "capacity":"0",
         "id":"239919",
         "start_day":"2018-12-08",
         "venue_zip":"",
         "latitude":"48.8697",
         "is_official":"1",
         "id_obfuscated":"gpg5bt"
      },
       {
         "longitude":"0.07395",
         "url":"https://www.facebook.com/events/2165308190168696/",
         "event_type_name":"Marches",
         "start_time":"14:00:00",
         "start_dt":"2018-12-08 14:00:00",
         "name":"Climate Alarm - Tarbes",
         "location":"Tarbes, France",
         "capacity":"0",
         "id":"230929",
         "start_day":"2018-12-08",
         "venue_zip":"",
         "latitude":"43.232658",
         "is_official":"1",
         "id_obfuscated":"gpg5bt"
      },
      {
         "longitude":"5.928",
         "url":"https://www.facebook.com/events/2679769178915433/",
         "event_type_name":"Marches",
         "start_time":"14:00:00",
         "start_dt":"2018-12-08 14:00:00",
         "name":"Climate Alarm - Toulon",
         "location":"Toulon, France",
         "capacity":"0",
         "id":"230913",
         "start_day":"2018-12-08",
         "venue_zip":"",
         "latitude":"43.124228",
         "is_official":"1",
         "id_obfuscated":"gpg5bt"
      },
   {
         "longitude":"1.4437",
         "url":"https://www.facebook.com/events/259970081328765/",
         "event_type_name":"Marches",
         "start_time":"10:00:00",
         "start_dt":"2018-12-08 10:00:00",
         "name":"Climate Alarm - Toulouse",
         "location":"Toulouse, France",
         "capacity":"0",
         "id":"230910",
         "start_day":"2018-12-08",
         "venue_zip":"",
         "latitude":"43.6043",
         "is_official":"1",
         "id_obfuscated":"gpg5bt"
      },   
      {
         "longitude":"4.41898",
         "url":"https://www.facebook.com/events/2425259121027537/",
         "event_type_name":"Marches",
         "start_time":"10:00:00",
         "start_dt":"2018-12-08 10:00:00",
         "name":"Climate Alarm - Uzès",
         "location":"Uzès, France",
         "capacity":"0",
         "id":"230940",
         "start_day":"2018-12-08",
         "venue_zip":"",
         "latitude":"44.0107",
         "is_official":"1",
         "id_obfuscated":"gpg5bt"
      },  
      {
         "longitude":"4.88994",
         "url":"https://www.facebook.com/events/519642868513935/",
         "event_type_name":"Marches",
         "start_time":"14:00:00",
         "start_dt":"2018-12-08 14:00:00",
         "name":"Climate Alarm - Valence",
         "location":"Valence, France",
         "capacity":"0",
         "id":"230922",
         "start_day":"2018-12-08",
         "venue_zip":"",
         "latitude":"44.92996",
         "is_official":"1",
         "id_obfuscated":"gpg5bt"
      },
      {
         "longitude":"-2.7608",
         "url":"https://www.facebook.com/events/108600473425370/",
         "event_type_name":"Marches",
         "start_time":"14:00:00",
         "start_dt":"2018-12-08 14:00:00",
         "name":"Climate Alarm - Vannes",
         "location":"Vannes, France",
         "capacity":"0",
         "id":"230922",
         "start_day":"2018-12-08",
         "venue_zip":"",
         "latitude":"47.6582",
         "is_official":"1",
         "id_obfuscated":"gpg5bt"
      },
      {
         "longitude":"5.59153",
         "url":"https://www.facebook.com/events/182574675923685/",
         "event_type_name":"Marches",
         "start_time":"14:00:00",
         "start_dt":"2018-12-08 14:00:00",
         "name":"Climate Alarm - Voiron",
         "location":"Voiron, France",
         "capacity":"0",
         "id":"230922",
         "start_day":"2018-12-08",
         "venue_zip":"",
         "latitude":"45.36698",
         "is_official":"1",
         "id_obfuscated":"gpg5bt"
      },

      {
         "longitude":"1.06534",
         "url":"https://www.facebook.com/events/347652719330762/",
         "event_type_name":"Marches",
         "start_time":"14:00:00",
         "start_dt":"2018-12-08 14:00:00",
         "name":"Climate Alarm - Vendôme",
         "location":"Vendôme, France",
         "capacity":"0",
         "id":"230922",
         "start_day":"2018-12-08",
         "venue_zip":"",
         "latitude":"47.792551",
         "is_official":"1",
         "id_obfuscated":"gpg5bt"
      },

      /*Added 28/11*/
      {
         "longitude":"0.6163629999999785",
         "url":"https://www.facebook.com/events/733245337050284/",
         "event_type_name":"Marches",
         "start_time":"14:00:00",
         "start_dt":"2018-12-08 14:00:00",
         "name":"Climate Alarm - Agen",
         "location":"Agen, France",
         "capacity":"0",
         "id":"230922",
         "start_day":"2018-12-08",
         "venue_zip":"",
         "latitude":"44.203142",
         "is_official":"1",
         "id_obfuscated":"gpg5bt"
      },
      {
         "longitude":"8.738634999999931",
         "url":"https://www.facebook.com/events/348053012625712/",
         "event_type_name":"Marches",
         "start_time":"14:00:00",
         "start_dt":"2018-12-08 14:00:00",
         "name":"Climate Alarm - Ajaccio",
         "location":"Ajaccio, France",
         "capacity":"0",
         "id":"230922",
         "start_day":"2018-12-08",
         "venue_zip":"",
         "latitude":"41.919229",
         "is_official":"1",
         "id_obfuscated":"gpg5bt"
      },
      {
         "longitude":"6.12835",
         "url":"https://www.facebook.com/events/496747667486919/",
         "event_type_name":"Marches",
         "start_time":"14:00:00",
         "start_dt":"2018-12-08 14:00:00",
         "name":"Climate Alarm - Annecy",
         "location":"Annecy, France",
         "capacity":"0",
         "id":"230922",
         "start_day":"2018-12-08",
         "venue_zip":"",
         "latitude":"45.89978",
         "is_official":"1",
         "id_obfuscated":"gpg5bt"
      },

      {
         "longitude":"7.1251",
         "url":"https://www.facebook.com/events/371556590255463/",
         "event_type_name":"Marches",
         "start_time":"14:00:00",
         "start_dt":"2018-12-08 14:00:00",
         "name":"Climate Alarm - Antibes",
         "location":"Antibes, France",
         "capacity":"0",
         "id":"230922",
         "start_day":"2018-12-08",
         "venue_zip":"",
         "latitude":"43.5804",
         "is_official":"1",
         "id_obfuscated":"gpg5bt"
      },
      {
         "longitude":"4.8089",
         "url":"https://www.facebook.com/events/254273975256029/",
         "event_type_name":"Marches",
         "start_time":"14:00:00",
         "start_dt":"2018-12-08 14:00:00",
         "name":"Climate Alarm - Avignon",
         "location":"Avignon, France",
         "capacity":"0",
         "id":"230922",
         "start_day":"2018-12-08",
         "venue_zip":"",
         "latitude":"43.9483",
         "is_official":"1",
         "id_obfuscated":"gpg5bt"
      },
      {
         "longitude":"4.745161000000053",
         "url":"https://www.facebook.com/events/310527266200384/",
         "event_type_name":"Marches",
         "start_time":"14:00:00",
         "start_dt":"2018-12-08 14:00:00",
         "name":"Climate Alarm - Belleville",
         "location":"Belleville, France",
         "capacity":"0",
         "id":"230922",
         "start_day":"2018-12-08",
         "venue_zip":"",
         "latitude":"46.109457",
         "is_official":"1",
         "id_obfuscated":"gpg5bt"
      },
      {
         "longitude":"6.0255",
         "url":"https://www.facebook.com/events/682329842138610/",
         "event_type_name":"Marches",
         "start_time":"14:00:00",
         "start_dt":"2018-12-08 14:00:00",
         "name":"Climate Alarm - Besançon",
         "location":"Besançon, France",
         "capacity":"0",
         "id":"230922",
         "start_day":"2018-12-08",
         "venue_zip":"",
         "latitude":"47.2412",
         "is_official":"1",
         "id_obfuscated":"gpg5bt"
      },
      {
         "longitude":"2.6392600000000357",
         "url":"https://www.facebook.com/events/285890835466388/",
         "event_type_name":"Marches",
         "start_time":"14:00:00",
         "start_dt":"2018-12-08 14:00:00",
         "name":"Climate Alarm - Béthune",
         "location":"Béthune, France",
         "capacity":"0",
         "id":"230922",
         "start_day":"2018-12-08",
         "venue_zip":"",
         "latitude":"50.531036",
         "is_official":"1",
         "id_obfuscated":"gpg5bt"
      },
      {
         "longitude":"-0.4928660000000491",
         "url":"https://www.facebook.com/events/334035147388108/",
         "event_type_name":"Marches",
         "start_time":"14:00:00",
         "start_dt":"2018-12-08 14:00:00",
         "name":"Climate Alarm - Bressuire",
         "location":"Bressuire, France",
         "capacity":"0",
         "id":"230922",
         "start_day":"2018-12-08",
         "venue_zip":"",
         "latitude":"46.84246",
         "is_official":"1",
         "id_obfuscated":"gpg5bt"
      },
      {
         "longitude":"1.5339370000000372",
         "url":"https://www.facebook.com/events/382148802527814/",
         "event_type_name":"Marches",
         "start_time":"14:00:00",
         "start_dt":"2018-12-08 14:00:00",
         "name":"Climate Alarm - Brive-la-Gaillarde",
         "location":"Brive-la-Gaillarde, France",
         "capacity":"0",
         "id":"230922",
         "start_day":"2018-12-08",
         "venue_zip":"",
         "latitude":"45.159555",
         "is_official":"1",
         "id_obfuscated":"gpg5bt"
      },

      {
         "longitude":"-0.3591",
         "url":"https://www.facebook.com/events/1918019738246067/",
         "event_type_name":"Marches",
         "start_time":"14:00:00",
         "start_dt":"2018-12-08 14:00:00",
         "name":"Climate Alarm - Caen",
         "location":"Caen, France",
         "capacity":"0",
         "id":"230922",
         "start_day":"2018-12-08",
         "venue_zip":"",
         "latitude":"49.1859",
         "is_official":"1",
         "id_obfuscated":"gpg5bt"
      },

      {
         "longitude":"3.2366329999999834",
         "url":"https://www.facebook.com/events/569761376815011/",
         "event_type_name":"Marches",
         "start_time":"14:00:00",
         "start_dt":"2018-12-08 14:00:00",
         "name":"Climate Alarm - Cambrai",
         "location":"Cambrai, France",
         "capacity":"0",
         "id":"230922",
         "start_day":"2018-12-08",
         "venue_zip":"",
         "latitude":"50.173538",
         "is_official":"1",
         "id_obfuscated":"gpg5bt"
      },
      {
         "longitude":"-52.313453100000004",
         "url":"https://www.facebook.com/events/2267348130203432/",
         "event_type_name":"Marches",
         "start_time":"14:00:00",
         "start_dt":"2018-12-08 14:00:00",
         "name":"Climate Alarm - Cayenne",
         "location":"Cayenne, France",
         "capacity":"0",
         "id":"230922",
         "start_day":"2018-12-08",
         "venue_zip":"",
         "latitude":"4.922420000000001",
         "is_official":"1",
         "id_obfuscated":"gpg5bt"
      },
      {
         "longitude":"5.92085",
         "url":"https://www.facebook.com/events/738511569845377/",
         "event_type_name":"Marches",
         "start_time":"14:00:00",
         "start_dt":"2018-12-08 14:00:00",
         "name":"Climate Alarm - Chambéry",
         "location":"Chambéry, France",
         "capacity":"0",
         "id":"230922",
         "start_day":"2018-12-08",
         "venue_zip":"",
         "latitude":"45.5667",
         "is_official":"1",
         "id_obfuscated":"gpg5bt"
      },
      {
         "longitude":"1.6957",
         "url":"https://www.facebook.com/events/1146138212207018/",
         "event_type_name":"Marches",
         "start_time":"14:00:00",
         "start_dt":"2018-12-08 14:00:00",
         "name":"Climate Alarm - Châteauroux",
         "location":"Châteauroux, France",
         "capacity":"0",
         "id":"230922",
         "start_day":"2018-12-08",
         "venue_zip":"",
         "latitude":"46.8047",
         "is_official":"1",
         "id_obfuscated":"gpg5bt"
      },
      {
         "longitude":"-1.6188108999999713",
         "url":"https://www.facebook.com/events/1880198812035619/",
         "event_type_name":"Marches",
         "start_time":"14:00:00",
         "start_dt":"2018-12-08 14:00:00",
         "name":"Climate Alarm - Cherbourg-en-Cotentin",
         "location":"Cherbourg-en-Cotentin, France",
         "capacity":"0",
         "id":"230922",
         "start_day":"2018-12-08",
         "venue_zip":"",
         "latitude":"49.6288218",
         "is_official":"1",
         "id_obfuscated":"gpg5bt"
      },
      {
         "longitude":"3.0863",
         "url":"https://www.facebook.com/events/925049754366901/",
         "event_type_name":"Marches",
         "start_time":"14:00:00",
         "start_dt":"2018-12-08 14:00:00",
         "name":"Climate Alarm - Clermont-ferrand",
         "location":"Clermont-ferrand, France",
         "capacity":"0",
         "id":"230922",
         "start_day":"2018-12-08",
         "venue_zip":"",
         "latitude":"45.7797",
         "is_official":"1",
         "id_obfuscated":"gpg5bt"
      },
      {
         "longitude":"-3.9207340000000386",
         "url":"https://www.facebook.com/events/1824529634313050/",
         "event_type_name":"Marches",
         "start_time":"14:00:00",
         "start_dt":"2018-12-08 14:00:00",
         "name":"Climate Alarm - Concarneau",
         "location":"Concarneau, France",
         "capacity":"0",
         "id":"230922",
         "start_day":"2018-12-08",
         "venue_zip":"",
         "latitude":"47.872834",
         "is_official":"1",
         "id_obfuscated":"gpg5bt"
      },
      {
         "longitude":"-1.0519449999999324",
         "url":"https://www.facebook.com/events/1153444704814296/",
         "event_type_name":"Marches",
         "start_time":"14:00:00",
         "start_dt":"2018-12-08 14:00:00",
         "name":"Climate Alarm - Dax",
         "location":"Dax, France",
         "capacity":"0",
         "id":"230922",
         "start_day":"2018-12-08",
         "venue_zip":"",
         "latitude":"43.708608",
         "is_official":"1",
         "id_obfuscated":"gpg5bt"
      },
      {
         "longitude":"5.04148",
         "url":"https://www.facebook.com/events/297337970988229/",
         "event_type_name":"Marches",
         "start_time":"14:00:00",
         "start_dt":"2018-12-08 14:00:00",
         "name":"Climate Alarm - Dijon",
         "location":"Dijon, France",
         "capacity":"0",
         "id":"230922",
         "start_day":"2018-12-08",
         "venue_zip":"",
         "latitude":"47.322",
         "is_official":"1",
         "id_obfuscated":"gpg5bt"
      },
      {
         "longitude":"5.49081000000001",
         "url":"https://www.facebook.com/events/298333414223733/",
         "event_type_name":"Marches",
         "start_time":"14:00:00",
         "start_dt":"2018-12-08 14:00:00",
         "name":"Climate Alarm - Dole",
         "location":"Dole, France",
         "capacity":"0",
         "id":"230922",
         "start_day":"2018-12-08",
         "venue_zip":"",
         "latitude":"47.09534",
         "is_official":"1",
         "id_obfuscated":"gpg5bt"
      },
      {
         "longitude":"-61.05878039999999",
         "url":"https://www.facebook.com/events/765815843810688/",
         "event_type_name":"Marches",
         "start_time":"14:00:00",
         "start_dt":"2018-12-08 14:00:00",
         "name":"Climate Alarm - Fort de France",
         "location":"Fort de France, France",
         "capacity":"0",
         "id":"230922",
         "start_day":"2018-12-08",
         "venue_zip":"",
         "latitude":"14.6160647",
         "is_official":"1",
         "id_obfuscated":"gpg5bt"
      },
      {
         "longitude":"6.92348",
         "url":"https://www.facebook.com/events/2028945514061990/",
         "event_type_name":"Marches",
         "start_time":"14:00:00",
         "start_dt":"2018-12-08 14:00:00",
         "name":"Climate Alarm - Grasse",
         "location":"Grasse, France",
         "capacity":"0",
         "id":"230922",
         "start_day":"2018-12-08",
         "venue_zip":"",
         "latitude":"43.6585",
         "is_official":"1",
         "id_obfuscated":"gpg5bt"
      },
      {
         "longitude":"-61.7064109",
         "url":"https://www.facebook.com/events/194895954746488/",
         "event_type_name":"Marches",
         "start_time":"14:00:00",
         "start_dt":"2018-12-08 14:00:00",
         "name":"Climate Alarm - Guadeloupe",
         "location":"Guadeloupe, France",
         "capacity":"0",
         "id":"230922",
         "start_day":"2018-12-08",
         "venue_zip":"",
         "latitude":"16.0144526",
         "is_official":"1",
         "id_obfuscated":"gpg5bt"
      },
            {
         "longitude":"-1.42697",
         "url":"https://www.facebook.com/events/1265852580221133/",
         "event_type_name":"Marches",
         "start_time":"14:00:00",
         "start_dt":"2018-12-08 14:00:00",
         "name":"Climate Alarm - La Roche sur Yon",
         "location":"La Roche sur Yon, France",
         "capacity":"0",
         "id":"230922",
         "start_day":"2018-12-08",
         "venue_zip":"",
         "latitude":"46.67",
         "is_official":"1",
         "id_obfuscated":"gpg5bt"
      },

            {
         "longitude":"-3.4591440000000375",
         "url":"https://www.facebook.com/events/315055162649025/",
         "event_type_name":"Marches",
         "start_time":"14:00:00",
         "start_dt":"2018-12-08 14:00:00",
         "name":"Climate Alarm - Lannion",
         "location":"Lannion, France",
         "capacity":"0",
         "id":"230922",
         "start_day":"2018-12-08",
         "venue_zip":"",
         "latitude":"48.732084",
         "is_official":"1",
         "id_obfuscated":"gpg5bt"
      },
          {
         "longitude":"-0.7646412000000282",
         "url":"https://www.facebook.com/events/252647872084894/",
         "event_type_name":"Marches",
         "start_time":"14:00:00",
         "start_dt":"2018-12-08 14:00:00",
         "name":"Climate Alarm - Laval",
         "location":"Laval, France",
         "capacity":"0",
         "id":"230922",
         "start_day":"2018-12-08",
         "venue_zip":"",
         "latitude":"48.0678944",
         "is_official":"1",
         "id_obfuscated":"gpg5bt"
      },
          {
         "longitude":"0.19955",
         "url":"https://www.facebook.com/events/740430956329041/",
         "event_type_name":"Marches",
         "start_time":"14:00:00",
         "start_dt":"2018-12-08 14:00:00",
         "name":"Climate Alarm - Le Mans",
         "location":"Le Mans, France",
         "capacity":"0",
         "id":"230922",
         "start_day":"2018-12-08",
         "venue_zip":"",
         "latitude":"48.006",
         "is_official":"1",
         "id_obfuscated":"gpg5bt"
      },


          {
         "longitude":"3.0586",
         "url":"https://www.facebook.com/events/760247310982356/",
         "event_type_name":"Marches",
         "start_time":"14:00:00",
         "start_dt":"2018-12-08 14:00:00",
         "name":"Climate Alarm - Lille ",
         "location":"Lille, France",
         "capacity":"0",
         "id":"230922",
         "start_day":"2018-12-08",
         "venue_zip":"",
         "latitude":"50.633",
         "is_official":"1",
         "id_obfuscated":"gpg5bt"
      },




      {
         "longitude":"6.35657",
         "url":"https://www.facebook.com/events/361464404600262/",
         "event_type_name":"Marches",
         "start_time":"14:00:00",
         "start_dt":"2018-12-08 14:00:00",
         "name":"Climate Alarm - Pontarlier",
         "location":"Pontarlier, France",
         "capacity":"0",
         "id":"230922",
         "start_day":"2018-12-08",
         "venue_zip":"",
         "latitude":"46.9032",
         "is_official":"1",
         "id_obfuscated":"gpg5bt"
      },
            {
         "longitude":"0.22784899999999197",
         "url":"https://www.facebook.com/events/200540334173155/",
         "event_type_name":"Marches",
         "start_time":"14:00:00",
         "start_dt":"2018-12-08 14:00:00",
         "name":"Climate Alarm - Lisieux",
         "location":"Lisieux, France",
         "capacity":"0",
         "id":"230922",
         "start_day":"2018-12-08",
         "venue_zip":"",
         "latitude":"49.14592199999999",
         "is_official":"1",
         "id_obfuscated":"gpg5bt"
      },
            {
         "longitude":"5.550795999999991",
         "url":"https://www.facebook.com/events/1003087506537896/",
         "event_type_name":"Marches",
         "start_time":"14:00:00",
         "start_dt":"2018-12-08 14:00:00",
         "name":"Climate Alarm - Lons-le-Saunier",
         "location":"Lons-le-Saunier, France",
         "capacity":"0",
         "id":"230922",
         "start_day":"2018-12-08",
         "venue_zip":"",
         "latitude":"46.671361",
         "is_official":"1",
         "id_obfuscated":"gpg5bt"
      },
            {
         "longitude":"-3.3702448999999888",
         "url":"https://www.facebook.com/events/546234285847794/",
         "event_type_name":"Marches",
         "start_time":"14:00:00",
         "start_dt":"2018-12-08 14:00:00",
         "name":"Climate Alarm - Lorient",
         "location":"Lorient, France",
         "capacity":"0",
         "id":"230922",
         "start_day":"2018-12-08",
         "venue_zip":"",
         "latitude":"47.7482524",
         "is_official":"1",
         "id_obfuscated":"gpg5bt"
      },
            {
         "longitude":"1.7149580000000242",
         "url":"https://www.facebook.com/events/365059320730336/",
         "event_type_name":"Marches",
         "start_time":"14:00:00",
         "start_dt":"2018-12-08 14:00:00",
         "name":"Climate Alarm - Mantes la Jolie",
         "location":"Mantes la Jolie, France",
         "capacity":"0",
         "id":"230922",
         "start_day":"2018-12-08",
         "venue_zip":"",
         "latitude":"48.98932300000001",
         "is_official":"1",
         "id_obfuscated":"gpg5bt"
      },

            {
         "longitude":"3.0962670000000116",
         "url":"https://www.facebook.com/events/255961785068570/",
         "event_type_name":"Marches",
         "start_time":"14:00:00",
         "start_dt":"2018-12-08 14:00:00",
         "name":"Climate Alarm - Marcq-en-Baroeul",
         "location":"Marcq-en-Baroeul, France",
         "capacity":"0",
         "id":"230922",
         "start_day":"2018-12-08",
         "venue_zip":"",
         "latitude":"50.670368",
         "is_official":"1",
         "id_obfuscated":"gpg5bt"
      },
      {
         "longitude":"5.053727999999978",
         "url":"https://www.facebook.com/events/575772726204837/",
         "event_type_name":"Marches",
         "start_time":"14:00:00",
         "start_dt":"2018-12-08 14:00:00",
         "name":"Climate Alarm - Martigues",
         "location":"Martigues, France",
         "capacity":"0",
         "id":"230922",
         "start_day":"2018-12-08",
         "venue_zip":"",
         "latitude":"43.404811",
         "is_official":"1",
         "id_obfuscated":"gpg5bt"
      },
      {
         "longitude":"3.5018729999999323",
         "url":"https://www.facebook.com/events/300627517455128/",
         "event_type_name":"Marches",
         "start_time":"14:00:00",
         "start_dt":"2018-12-08 14:00:00",
         "name":"Climate Alarm - Mende",
         "location":"Mende, France",
         "capacity":"0",
         "id":"230922",
         "start_day":"2018-12-08",
         "venue_zip":"",
         "latitude":"44.517611",
         "is_official":"1",
         "id_obfuscated":"gpg5bt"
      },
      {
         "longitude":"4.362978999999996",
         "url":"https://www.facebook.com/events/1877065459079217/",
         "event_type_name":"Marches",
         "start_time":"14:00:00",
         "start_dt":"2018-12-08 14:00:00",
         "name":"Climate Alarm - Montceau les mines",
         "location":"Montceau les mines, France",
         "capacity":"0",
         "id":"230922",
         "start_day":"2018-12-08",
         "venue_zip":"",
         "latitude":"46.67413",
         "is_official":"1",
         "id_obfuscated":"gpg5bt"
      },

      {
         "longitude":"-3.82747",
         "url":"https://www.facebook.com/events/264131387579614/",
         "event_type_name":"Marches",
         "start_time":"14:00:00",
         "start_dt":"2018-12-08 14:00:00",
         "name":"Climate Alarm - Morlaix",
         "location":"Morlaix, France",
         "capacity":"0",
         "id":"230922",
         "start_day":"2018-12-08",
         "venue_zip":"",
         "latitude":"48.57717",
         "is_official":"1",
         "id_obfuscated":"gpg5bt"
      },
      {
         "longitude":"4.36",
         "url":"https://www.facebook.com/events/688549261541097/",
         "event_type_name":"Marches",
         "start_time":"14:00:00",
         "start_dt":"2018-12-08 14:00:00",
         "name":"Climate Alarm - Nimes",
         "location":"Nimes, France",
         "capacity":"0",
         "id":"230922",
         "start_day":"2018-12-08",
         "venue_zip":"",
         "latitude":"43.8374",
         "is_official":"1",
         "id_obfuscated":"gpg5bt"
      },
      {
         "longitude":"2.5526099999999587",
         "url":"https://www.facebook.com/events/303279243878537/",
         "event_type_name":"Marches",
         "start_time":"14:00:00",
         "start_dt":"2018-12-08 14:00:00",
         "name":"Climate Alarm - Noisy le grand",
         "location":"Noisy le grand, France",
         "capacity":"0",
         "id":"230922",
         "start_day":"2018-12-08",
         "venue_zip":"",
         "latitude":"48.848579",
         "is_official":"1",
         "id_obfuscated":"gpg5bt"
      },

      {
         "longitude":"2.4572494000000233",
         "url":"https://www.facebook.com/events/715488058818934/",
         "event_type_name":"Marches",
         "start_time":"14:00:00",
         "start_dt":"2018-12-08 14:00:00",
         "name":"Climate Alarm - Noisy le sec",
         "location":"Noisy le sec, France",
         "capacity":"0",
         "id":"230922",
         "start_day":"2018-12-08",
         "venue_zip":"",
         "latitude":"48.8916544",
         "is_official":"1",
         "id_obfuscated":"gpg5bt"
      },