window.EVENT_DATA ={
   "results":[


/*Grève mondiale du 15/03 */

 {
   "name": "Marche pour le climat Saintes",
   "location": "Saintes, France",
   "url": "https://www.facebook.com/events/350484542398392/",
   "latitude": "45.742",
   "longitude": "-0.629933",
   "event_type_name": "FridaysForFuture",
   "start_time": "",
   "start_dt": "2019-16-03",
   "capacity": "",
   "id": "",
   "start_day": "",
   "venue_zip": "",
   "is_official": "1",
   "id_obfuscated": "gpg5bt"
 },


 /*Recurring events (FFF°*/


 {
   "name": "Fridays For Future by Post plastic generation",
   "location": "Rotterdam, Netherlands",
   "url": "https://www.facebook.com/events/350484542398392/",
   "latitude": "51.9244201",
   "longitude": "4.4777326",
   "event_type_name": "FridaysForFuture",
   "start_time": "",
   "start_dt": "2019-11-01",
   "capacity": "",
   "id": "",
   "start_day": "",
   "venue_zip": "",
   "is_official": "1",
   "id_obfuscated": "gpg5bt"
 },
 {
   "name": "Fridaysforfuture Würzburg",
   "location": "Würzburg, Germany",
   "url": "https://www.instagram.com/fridaysforfuture_wuerzburg/",
   "latitude": "49.7913043999999",
   "longitude": "9.9533548",
   "event_type_name": "FridaysForFuture",
   "start_time": "",
   "start_dt": "2019-01-18",  
   "capacity": "",
   "id": "",
   "start_day": "",
   "venue_zip": "",
   "is_official": "1",
   "id_obfuscated": "gpg5bt"
 },
 {
   "name": "Fridays For Furute Mainz climateStrike",
   "location": "Mainz, Germany",
   "url": "https://www.facebook.com/events/790736611276900/",
   "latitude": "49.9928617",
   "longitude": "8.2472526",
   "event_type_name": "FridaysForFuture",
   "start_time": "",
   "start_dt": "2019-01-18",
   "capacity": "",
   "id": "",
   "start_day": "",
   "venue_zip": "",
   "is_official": "1",
   "id_obfuscated": "gpg5bt"
 },
 {
   "name": "Fridays for future Wuerzburg",
   "location": "Wuerzburg, Germany",
   "url": "https://www.facebook.com/events/565184143947409/?ti=as",
   "latitude": "49.7913043999999",
   "longitude": "9.9533548",
   "event_type_name": "FridaysForFuture",
   "start_time": "",
   "start_dt": "2019-01-18",
   "capacity": "",
   "id": "",
   "start_day": "",
   "venue_zip": "",
   "is_official": "1",
   "id_obfuscated": "gpg5bt"
 },
 {
   "name": "Klimatstrejk- FridaysForFuture",
   "location": "Kristianstad, Sweden",
   "url": "https://www.facebook.com/events/1128790853968495/",
   "latitude": "56.0293936",
   "longitude": "14.1566779",
   "event_type_name": "FridaysForFuture",
   "start_time": "",
   "start_dt": "2019-01-18",
   "capacity": "",
   "id": "",
   "start_day": "",
   "venue_zip": "",
   "is_official": "1",
   "id_obfuscated": "gpg5bt"
 },
 {
   "name": "Hannover",
   "location": "Hannover, Germany",
   "url": "http://www.soulstyle.de",
   "latitude": "52.3758916",
   "longitude": "9.7320104",
   "event_type_name": "FridaysForFuture",
   "start_time": "",
   "start_dt": "2019-01-18",
   "capacity": "",
   "id": "",
   "start_day": "",
   "venue_zip": "",
   "is_official": "1",
   "id_obfuscated": "gpg5bt"
 },

 {
   "name": "FFF Nyköping",
   "location": "Sverige, Nyköping",
   "url": "https://www.facebook.com/groups/929294497203110/",
   "latitude": "58.7528438999999",
   "longitude": "17.0091593",
   "event_type_name": "FridaysForFuture",
   "start_time": "",
   "start_dt": "",
   "capacity": "",
   "id": "",
   "start_day": "",
   "venue_zip": "",
   "is_official": "1",
   "id_obfuscated": "gpg5bt"
 },
 {
   "name": "FFF Katrineholm",
   "location": "Sverige, Katrineholm",
   "url": "https://www.facebook.com/klimatgruppen",
   "latitude": "58.9955510999999",
   "longitude": "16.2054756",
   "event_type_name": "FridaysForFuture",
   "start_time": "",
   "start_dt": "",
   "capacity": "",
   "id": "",
   "start_day": "",
   "venue_zip": "",
   "is_official": "1",
   "id_obfuscated": "gpg5bt"
 },
 {
   "name": "FFF Trollhättan",
   "location": "Sverige, Trollhättan",
   "url": "https://www.facebook.com/groups/929294497203110/",
   "latitude": "58.2834893999999",
   "longitude": "12.2858206",
   "event_type_name": "FridaysForFuture",
   "start_time": "",
   "start_dt": "",
   "capacity": "",
   "id": "",
   "start_day": "",
   "venue_zip": "",
   "is_official": "1",
   "id_obfuscated": "gpg5bt"
 },
 {
   "name": "FFF Södertälje",
   "location": "Sverige, Södertälje",
   "url": "https://www.facebook.com/events/1931885543563414/",
   "latitude": "59.195363",
   "longitude": "17.625689",
   "event_type_name": "FridaysForFuture",
   "start_time": "",
   "start_dt": "",
   "capacity": "",
   "id": "",
   "start_day": "",
   "venue_zip": "",
   "is_official": "1",
   "id_obfuscated": "gpg5bt"
 },
 {
   "name": "FFF Lund",
   "location": "Sverige, Lund",
   "url": "https://www.facebook.com/events/509178649560555/",
   "latitude": "55.7046601",
   "longitude": "13.1910073",
   "event_type_name": "FridaysForFuture",
   "start_time": "",
   "start_dt": "",
   "capacity": "",
   "id": "",
   "start_day": "",
   "venue_zip": "",
   "is_official": "1",
   "id_obfuscated": "gpg5bt"
 },
 {
   "name": "FFF Järfälla",
   "location": "Sverige, Järfälla",
   "url": "https://www.facebook.com/events/1983461495052359/",
   "latitude": "59.4252654",
   "longitude": "17.8238965",
   "event_type_name": "FridaysForFuture",
   "start_time": "",
   "start_dt": "",
   "capacity": "",
   "id": "",
   "start_day": "",
   "venue_zip": "",
   "is_official": "1",
   "id_obfuscated": "gpg5bt"
 },
 {
   "name": "FFF Nora",
   "location": "Sverige, Nora",
   "url": "https://www.facebook.com/events/190261361812800/?notif_t=plan_user_invited&notif_id=1542399199611169",
   "latitude": "59.5135813",
   "longitude": "14.9846152",
   "event_type_name": "FridaysForFuture",
   "start_time": "",
   "start_dt": "",
   "capacity": "",
   "id": "",
   "start_day": "",
   "venue_zip": "",
   "is_official": "1",
   "id_obfuscated": "gpg5bt"
 },
 {
   "name": "FFF Norrköping ",
   "location": "Sverige, Norrköping ",
   "url": "https://www.facebook.com/events/270457556881021/?ti=icl",
   "latitude": "58.587745",
   "longitude": "16.192421",
   "event_type_name": "FridaysForFuture",
   "start_time": "",
   "start_dt": "",
   "capacity": "",
   "id": "",
   "start_day": "",
   "venue_zip": "",
   "is_official": "1",
   "id_obfuscated": "gpg5bt"
 },
 {
   "name": "FFF Boden",
   "location": "Sverige, Boden",
   "url": "https://www.facebook.com/events/2367940176569238",
   "latitude": "65.8222246",
   "longitude": "21.5902024",
   "event_type_name": "FridaysForFuture",
   "start_time": "",
   "start_dt": "",
   "capacity": "",
   "id": "",
   "start_day": "",
   "venue_zip": "",
   "is_official": "1",
   "id_obfuscated": "gpg5bt"
 },
 {
   "name": "FFF Söderhamn",
   "location": "Sverige, Söderhamn",
   "url": "https://www.facebook.com/groups/929294497203110/",
   "latitude": "61.3055762",
   "longitude": "17.0628102",
   "event_type_name": "FridaysForFuture",
   "start_time": "",
   "start_dt": "",
   "capacity": "",
   "id": "",
   "start_day": "",
   "venue_zip": "",
   "is_official": "1",
   "id_obfuscated": "gpg5bt"
 },
 {
   "name": "FFF Jönköping",
   "location": "Sverige, Jönköping",
   "url": "https://www.facebook.com/groups/929294497203110/",
   "latitude": "57.7826137",
   "longitude": "14.1617876",
   "event_type_name": "FridaysForFuture",
   "start_time": "",
   "start_dt": "",
   "capacity": "",
   "id": "",
   "start_day": "",
   "venue_zip": "",
   "is_official": "1",
   "id_obfuscated": "gpg5bt"
 },
 {
   "name": "FFF Tanumshede",
   "location": "Sverige, Tanumshede",
   "url": "https://www.facebook.com/events/559070557873601/",
   "latitude": "58.7239941",
   "longitude": "11.3252391",
   "event_type_name": "FridaysForFuture",
   "start_time": "",
   "start_dt": "",
   "capacity": "",
   "id": "",
   "start_day": "",
   "venue_zip": "",
   "is_official": "1",
   "id_obfuscated": "gpg5bt"
 },
 {
   "name": "FFF Älmhult",
   "location": "Sverige, Älmhult",
   "url": "https://m.facebook.com/events/715531572164399?_rdr",
   "latitude": "56.5524461",
   "longitude": "14.1374047",
   "event_type_name": "FridaysForFuture",
   "start_time": "",
   "start_dt": "",
   "capacity": "",
   "id": "",
   "start_day": "",
   "venue_zip": "",
   "is_official": "1",
   "id_obfuscated": "gpg5bt"
 },
 {
   "name": "FFF Umeå",
   "location": "Sverige, Umeå",
   "url": "https://www.facebook.com/events/196651434622236/",
   "latitude": "63.8258471",
   "longitude": "20.2630354",
   "event_type_name": "FridaysForFuture",
   "start_time": "",
   "start_dt": "",
   "capacity": "",
   "id": "",
   "start_day": "",
   "venue_zip": "",
   "is_official": "1",
   "id_obfuscated": "gpg5bt"
 },
 {
   "name": "FFF Falköping",
   "location": "Sverige, Falköping",
   "url": "https://www.facebook.com/events/370098203734518/",
   "latitude": "58.1750289999999",
   "longitude": "13.553217",
   "event_type_name": "FridaysForFuture",
   "start_time": "",
   "start_dt": "",
   "capacity": "",
   "id": "",
   "start_day": "",
   "venue_zip": "",
   "is_official": "1",
   "id_obfuscated": "gpg5bt"
 },
 {
   "name": "FFF Manchester",
   "location": "UK, Manchester",
   "url": "https://www.facebook.com/groups/929294497203110/",
   "latitude": "53.4807593",
   "longitude": "-2.2426305",
   "event_type_name": "FridaysForFuture",
   "start_time": "",
   "start_dt": "",
   "capacity": "",
   "id": "",
   "start_day": "",
   "venue_zip": "",
   "is_official": "1",
   "id_obfuscated": "gpg5bt"
 },
 {
   "name": "FFF Munkedal",
   "location": "Sverige, Munkedal",
   "url": "https://www.facebook.com/events/2250730378479340/ ",
   "latitude": "58.4715050999999",
   "longitude": "11.6801923",
   "event_type_name": "FridaysForFuture",
   "start_time": "",
   "start_dt": "",
   "capacity": "",
   "id": "",
   "start_day": "",
   "venue_zip": "",
   "is_official": "1",
   "id_obfuscated": "gpg5bt"
 },
 {
   "name": "FFF Höganäs",
   "location": "Sverige, Höganäs",
   "url": "https://www.facebook.com/groups/929294497203110/",
   "latitude": "56.1996493",
   "longitude": "12.5487229",
   "event_type_name": "FridaysForFuture",
   "start_time": "",
   "start_dt": "",
   "capacity": "",
   "id": "",
   "start_day": "",
   "venue_zip": "",
   "is_official": "1",
   "id_obfuscated": "gpg5bt"
 },
 {
   "name": "FFF Kramfors",
   "location": "Sweden, Kramfors",
   "url": "https://m.facebook.com/groups/913133312408843",
   "latitude": "62.9284332",
   "longitude": "17.7862946",
   "event_type_name": "FridaysForFuture",
   "start_time": "",
   "start_dt": "",
   "capacity": "",
   "id": "",
   "start_day": "",
   "venue_zip": "",
   "is_official": "1",
   "id_obfuscated": "gpg5bt"
 },
 {
   "name": "FFF Mölndal",
   "location": "Sweden, Mölndal",
   "url": "https://www.facebook.com/groups/929294497203110/",
   "latitude": "57.65",
   "longitude": "12.0166669",
   "event_type_name": "FridaysForFuture",
   "start_time": "",
   "start_dt": "",
   "capacity": "",
   "id": "",
   "start_day": "",
   "venue_zip": "",
   "is_official": "1",
   "id_obfuscated": "gpg5bt"
 },
 {
   "name": "FFF Oxford",
   "location": "UK, Oxford",
   "url": "https://www.facebook.com/groups/929294497203110/",
   "latitude": "51.7504111",
   "longitude": "-1.2826071",
   "event_type_name": "FridaysForFuture",
   "start_time": "",
   "start_dt": "",
   "capacity": "",
   "id": "",
   "start_day": "",
   "venue_zip": "",
   "is_official": "1",
   "id_obfuscated": "gpg5bt"
 },
 {
   "name": "FFF Dublin",
   "location": "Ireland, Dublin",
   "url": "https://www.facebook.com/groups/264915914187950/",
   "latitude": "53.3498053",
   "longitude": "-6.2603097",
   "event_type_name": "FridaysForFuture",
   "start_time": "",
   "start_dt": "",
   "capacity": "",
   "id": "",
   "start_day": "",
   "venue_zip": "",
   "is_official": "1",
   "id_obfuscated": "gpg5bt"
 },
 {
   "name": "FFF Linköping",
   "location": "Sweden, Linköping",
   "url": "https://www.facebook.com/groups/245963729404817/",
   "latitude": "58.410807",
   "longitude": "15.6213728",
   "event_type_name": "FridaysForFuture",
   "start_time": "",
   "start_dt": "",
   "capacity": "",
   "id": "",
   "start_day": "",
   "venue_zip": "",
   "is_official": "1",
   "id_obfuscated": "gpg5bt"
 },
 {
   "name": "FFF Karlstad",
   "location": "Sweden, Karlstad",
   "url": "https://www.facebook.com/groups/465945337246071",
   "latitude": "59.4021806",
   "longitude": "13.5114978",
   "event_type_name": "FridaysForFuture",
   "start_time": "",
   "start_dt": "",
   "capacity": "",
   "id": "",
   "start_day": "",
   "venue_zip": "",
   "is_official": "1",
   "id_obfuscated": "gpg5bt"
 },
 {
   "name": "FFF Heldenplatz",
   "location": "Österreich, Heldenplatz",
   "url": "https://www.facebook.com/Fridays-for-Future-Vienna-985153355001489/",
   "latitude": "48.2063576",
   "longitude": "16.3631746",
   "event_type_name": "FridaysForFuture",
   "start_time": "",
   "start_dt": "",
   "capacity": "",
   "id": "",
   "start_day": "",
   "venue_zip": "",
   "is_official": "1",
   "id_obfuscated": "gpg5bt"
 },
 {
   "name": "FFF Montreal",
   "location": "Canada, Montreal",
   "url": "https://cop24climatestrike.com/event-map/",
   "latitude": "45.5016889",
   "longitude": "-73.567256",
   "event_type_name": "FridaysForFuture",
   "start_time": "",
   "start_dt": "",
   "capacity": "",
   "id": "",
   "start_day": "",
   "venue_zip": "",
   "is_official": "1",
   "id_obfuscated": "gpg5bt"
 },
 {
   "name": "FFF Düsseldorf",
   "location": "Germany, Düsseldorf",
   "url": "https://www.facebook.com/fridaysforfutureduesseldorf",
   "latitude": "51.2277411",
   "longitude": "6.7734556",
   "event_type_name": "FridaysForFuture",
   "start_time": "",
   "start_dt": "",
   "capacity": "",
   "id": "",
   "start_day": "",
   "venue_zip": "",
   "is_official": "1",
   "id_obfuscated": "gpg5bt"
 },
 {
   "name": "FFF Humboldt Arcata Plaza",
   "location": "United States, Humboldt Arcata plaza",
   "url": "https://www.facebook.com/groups/929294497203110/",
   "latitude": "40.8862955",
   "longitude": "-124.0906478",
   "event_type_name": "FridaysForFuture",
   "start_time": "",
   "start_dt": "",
   "capacity": "",
   "id": "",
   "start_day": "",
   "venue_zip": "",
   "is_official": "1",
   "id_obfuscated": "gpg5bt"
 },
 {
   "name": "FFF Truro",
   "location": "Canada, Truro",
   "url": "https://www.facebook.com/events/475519642976018/",
   "latitude": "45.3459066",
   "longitude": "-63.2859908",
   "event_type_name": "FridaysForFuture",
   "start_time": "",
   "start_dt": "",
   "capacity": "",
   "id": "",
   "start_day": "",
   "venue_zip": "",
   "is_official": "1",
   "id_obfuscated": "gpg5bt"
 },
 {
   "name": "FFF Adıyaman",
   "location": "Türkiye, Adıyaman",
   "url": "https://www.facebook.com/groups/929294497203110/",
   "latitude": "37.76365",
   "longitude": "38.2772592",
   "event_type_name": "FridaysForFuture",
   "start_time": "",
   "start_dt": "",
   "capacity": "",
   "id": "",
   "start_day": "",
   "venue_zip": "",
   "is_official": "1",
   "id_obfuscated": "gpg5bt"
 },
 {
   "name": "FFF Bugolobi",
   "location": "Uganda, Bugolobi",
   "url": "https://www.facebook.com/groups/929294497203110/",
   "latitude": "0.309722",
   "longitude": "32.6257655",
   "event_type_name": "FridaysForFuture",
   "start_time": "",
   "start_dt": "",
   "capacity": "",
   "id": "",
   "start_day": "",
   "venue_zip": "",
   "is_official": "1",
   "id_obfuscated": "gpg5bt"
 },
 {
   "name": "FFF Prage",
   "location": "czechia, Prage",
   "url": "http://www.climate-day.com",
   "latitude": "50.0755381",
   "longitude": "14.4378005",
   "event_type_name": "FridaysForFuture",
   "start_time": "",
   "start_dt": "",
   "capacity": "",
   "id": "",
   "start_day": "",
   "venue_zip": "",
   "is_official": "1",
   "id_obfuscated": "gpg5bt"
 },
 {
   "name": "FFF Stuttgart",
   "location": "Germany, Stuttgart",
   "url": "https://www.facebook.com/groups/929294497203110/",
   "latitude": "48.7758459",
   "longitude": "9.1829321",
   "event_type_name": "FridaysForFuture",
   "start_time": "",
   "start_dt": "",
   "capacity": "",
   "id": "",
   "start_day": "",
   "venue_zip": "",
   "is_official": "1",
   "id_obfuscated": "gpg5bt"
 },
 {
   "name": "FFF Osnabrück",
   "location": "Germany, Osnabrück",
   "url": "https://www.instagram.com/fridaysforfuture_os/?hl=de",
   "latitude": "52.2799112",
   "longitude": "8.0471788",
   "event_type_name": "FridaysForFuture",
   "start_time": "",
   "start_dt": "",
   "capacity": "",
   "id": "",
   "start_day": "",
   "venue_zip": "",
   "is_official": "1",
   "id_obfuscated": "gpg5bt"
 },
 {
   "name": "FFF Bollebygd",
   "location": "Sweden, BOLLEBYGD",
   "url": "https://www.facebook.com/events/373579246536117/",
   "latitude": "57.6689691",
   "longitude": "12.5701433",
   "event_type_name": "FridaysForFuture",
   "start_time": "",
   "start_dt": "",
   "capacity": "",
   "id": "",
   "start_day": "",
   "venue_zip": "",
   "is_official": "1",
   "id_obfuscated": "gpg5bt"
 },
 {
   "name": "FFF Lochaber High School",
   "location": "UK, Lochaber High School",
   "url": "https://www.facebook.com/groups/929294497203110/",
   "latitude": "56.8373419",
   "longitude": "-5.078086",
   "event_type_name": "FridaysForFuture",
   "start_time": "",
   "start_dt": "",
   "capacity": "",
   "id": "",
   "start_day": "",
   "venue_zip": "",
   "is_official": "1",
   "id_obfuscated": "gpg5bt"
 },
 {
   "name": "FFF Lafiabougou",
   "location": "Mali, Lafiabougou",
   "url": "https://m.facebook.com/Ensemble-pour-le-Climat-Bamako-1381176922016701/",
   "latitude": "12.6351525",
   "longitude": "-8.0437909",
   "event_type_name": "FridaysForFuture",
   "start_time": "",
   "start_dt": "",
   "capacity": "",
   "id": "",
   "start_day": "",
   "venue_zip": "",
   "is_official": "1",
   "id_obfuscated": "gpg5bt"
 },
 {
   "name": "FFF Arusha",
   "location": "Tanzania, Arusha",
   "url": "https://www.facebook.com/groups/929294497203110/",
   "latitude": "-3.3869254",
   "longitude": "36.6829927",
   "event_type_name": "FridaysForFuture",
   "start_time": "",
   "start_dt": "",
   "capacity": "",
   "id": "",
   "start_day": "",
   "venue_zip": "",
   "is_official": "1",
   "id_obfuscated": "gpg5bt"
 },
 {
   "name": "FFF Bad Segeberg",
   "location": "Deutschland, Bad Segeberg",
   "url": "https://www.facebook.com/groups/929294497203110/",
   "latitude": "53.9390528",
   "longitude": "10.3053652",
   "event_type_name": "FridaysForFuture",
   "start_time": "",
   "start_dt": "",
   "capacity": "",
   "id": "",
   "start_day": "",
   "venue_zip": "",
   "is_official": "1",
   "id_obfuscated": "gpg5bt"
 },
 {
   "name": "FFF Rotterdam",
   "location": "Netherlands, Rotterdam",
   "url": "https://www.facebook.com/events/350484542398392/",
   "latitude": "51.9244201",
   "longitude": "4.4777326",
   "event_type_name": "FridaysForFuture",
   "start_time": "",
   "start_dt": "",
   "capacity": "",
   "id": "",
   "start_day": "",
   "venue_zip": "",
   "is_official": "1",
   "id_obfuscated": "gpg5bt"
 },
 {
   "name": "FFF Härnösand",
   "location": "Sweden, Härnösand",
   "url": "https://www.facebook.com/groups/211651019774548/",
   "latitude": "62.6322698",
   "longitude": "17.9408714",
   "event_type_name": "FridaysForFuture",
   "start_time": "",
   "start_dt": "",
   "capacity": "",
   "id": "",
   "start_day": "",
   "venue_zip": "",
   "is_official": "1",
   "id_obfuscated": "gpg5bt"
 },
 {
   "name": "FFF Stockholm",
   "location": "Sweden , Stockholm",
   "url": "https://www.facebook.com/groups/929294497203110/",
   "latitude": "59.3293234999999",
   "longitude": "18.0685808",
   "event_type_name": "FridaysForFuture",
   "start_time": "",
   "start_dt": "",
   "capacity": "",
   "id": "",
   "start_day": "",
   "venue_zip": "",
   "is_official": "1",
   "id_obfuscated": "gpg5bt"
 },
 {
   "name": "FFF Gislaved",
   "location": "Sverige, Gislaved",
   "url": "https://www.facebook.com/events/2236540569920627/?ti=ia",
   "latitude": "57.2985",
   "longitude": "13.54326",
   "event_type_name": "FridaysForFuture",
   "start_time": "",
   "start_dt": "",
   "capacity": "",
   "id": "",
   "start_day": "",
   "venue_zip": "",
   "is_official": "1",
   "id_obfuscated": "gpg5bt"
 },
 {
   "name": "FFF Cardiff",
   "location": "UK, Cardiff",
   "url": "https://www.facebook.com/events/2259997817659527/",
   "latitude": "51.481581",
   "longitude": "-3.17909",
   "event_type_name": "FridaysForFuture",
   "start_time": "",
   "start_dt": "",
   "capacity": "",
   "id": "",
   "start_day": "",
   "venue_zip": "",
   "is_official": "1",
   "id_obfuscated": "gpg5bt"
 },
 {
   "name": "FFF Letchworth",
   "location": "UK, Letchworth",
   "url": "https://www.facebook.com/groups/929294497203110/",
   "latitude": "51.9776123",
   "longitude": "-0.2590337",
   "event_type_name": "FridaysForFuture",
   "start_time": "",
   "start_dt": "",
   "capacity": "",
   "id": "",
   "start_day": "",
   "venue_zip": "",
   "is_official": "1",
   "id_obfuscated": "gpg5bt"
 },
 {
   "name": "FFF Bari",
   "location": "Italy, Bari",
   "url": "https://www.facebook.com/bariwwf/",
   "latitude": "41.1171432",
   "longitude": "16.8718715",
   "event_type_name": "FridaysForFuture",
   "start_time": "",
   "start_dt": "",
   "capacity": "",
   "id": "",
   "start_day": "",
   "venue_zip": "",
   "is_official": "1",
   "id_obfuscated": "gpg5bt"
 },
 {
   "name": "FFF Ekerö",
   "location": "Sweden, Ekerö",
   "url": "https://www.facebook.com/events/2407451842621990/?ti=icl",
   "latitude": "59.359052",
   "longitude": "17.6694942",
   "event_type_name": "FridaysForFuture",
   "start_time": "",
   "start_dt": "",
   "capacity": "",
   "id": "",
   "start_day": "",
   "venue_zip": "",
   "is_official": "1",
   "id_obfuscated": "gpg5bt"
 },


 {
   "name": "FFF Kristianstad",
   "location": "Sverige, Kristianstad",
   "url": "https://www.facebook.com/groups/929294497203110/",
   "latitude": "56.0293936",
   "longitude": "14.1566779",
   "event_type_name": "FridaysForFuture",
   "start_time": "",
   "start_dt": "",
   "capacity": "",
   "id": "",
   "start_day": "",
   "venue_zip": "",
   "is_official": "1",
   "id_obfuscated": "gpg5bt"
 },
 {
   "name": "FFF Brooklyn",
   "location": "United States, Brooklyn",
   "url": "https://www.facebook.com/groups/929294497203110/",
   "latitude": "40.6781784",
   "longitude": "-73.9441579",
   "event_type_name": "FridaysForFuture",
   "start_time": "",
   "start_dt": "",
   "capacity": "",
   "id": "",
   "start_day": "",
   "venue_zip": "",
   "is_official": "1",
   "id_obfuscated": "gpg5bt"
 },
 {
   "name": "FFF Pisa",
   "location": "Italy, Pisa",
   "url": "https://www.facebook.com/Fridays-For-Future-Pisa-Italy-1028287830704488/",
   "latitude": "43.7228386",
   "longitude": "10.4016888",
   "event_type_name": "FridaysForFuture",
   "start_time": "",
   "start_dt": "",
   "capacity": "",
   "id": "",
   "start_day": "",
   "venue_zip": "",
   "is_official": "1",
   "id_obfuscated": "gpg5bt"
 },
 {
   "name": "FFF Saarbrücken",
   "location": "Germany, Saarbrücken",
   "url": "https://fridaysforfuture.de/18januar/",
   "latitude": "49.2401572",
   "longitude": "6.99693269999999",
   "event_type_name": "FridaysForFuture",
   "start_time": "",
   "start_dt": "",
   "capacity": "",
   "id": "",
   "start_day": "",
   "venue_zip": "",
   "is_official": "1",
   "id_obfuscated": "gpg5bt"
 },
 {
   "name": "FFF Växjö",
   "location": "Sweden, Växjö",
   "url": "https://www.facebook.com/groups/929294497203110/",
   "latitude": "56.8790044",
   "longitude": "14.8058523",
   "event_type_name": "FridaysForFuture",
   "start_time": "",
   "start_dt": "",
   "capacity": "",
   "id": "",
   "start_day": "",
   "venue_zip": "",
   "is_official": "1",
   "id_obfuscated": "gpg5bt"
 },
 {
   "name": "FFF Falkenberg",
   "location": "Sweden, Falkenberg",
   "url": "https://www.facebook.com/groups/929294497203110/",
   "latitude": "56.9027332999999",
   "longitude": "12.4888013",
   "event_type_name": "FridaysForFuture",
   "start_time": "",
   "start_dt": "",
   "capacity": "",
   "id": "",
   "start_day": "",
   "venue_zip": "",
   "is_official": "1",
   "id_obfuscated": "gpg5bt"
 },
 {
   "name": "FFF Jakobstad",
   "location": "Finland, Jakobstad",
   "url": "https://www.facebook.com/groups/213081162970952/",
   "latitude": "63.6744036",
   "longitude": "22.6966088",
   "event_type_name": "FridaysForFuture",
   "start_time": "",
   "start_dt": "",
   "capacity": "",
   "id": "",
   "start_day": "",
   "venue_zip": "",
   "is_official": "1",
   "id_obfuscated": "gpg5bt"
 },
 {
   "name": "FFF Salo",
   "location": "Finland, Salo",
   "url": "https://www.facebook.com/groups/929294497203110/",
   "latitude": "60.3900183",
   "longitude": "23.1171797",
   "event_type_name": "FridaysForFuture",
   "start_time": "",
   "start_dt": "",
   "capacity": "",
   "id": "",
   "start_day": "",
   "venue_zip": "",
   "is_official": "1",
   "id_obfuscated": "gpg5bt"
 },
 {
   "name": "FFF London",
   "location": "UK, London",
   "url": "https://www.facebook.com/events/301551180480086/",
   "latitude": "51.5073509",
   "longitude": "-0.1277583",
   "event_type_name": "FridaysForFuture",
   "start_time": "",
   "start_dt": "",
   "capacity": "",
   "id": "",
   "start_day": "",
   "venue_zip": "",
   "is_official": "1",
   "id_obfuscated": "gpg5bt"
 },
 {
   "name": "FFF New York City",
   "location": "United States, New York City",
   "url": "https://www.facebook.com/groups/929294497203110/",
   "latitude": "40.7127753",
   "longitude": "-74.0059728",
   "event_type_name": "FridaysForFuture",
   "start_time": "",
   "start_dt": "",
   "capacity": "",
   "id": "",
   "start_day": "",
   "venue_zip": "",
   "is_official": "1",
   "id_obfuscated": "gpg5bt"
 },
 {
   "name": "FFF Årsta ",
   "location": "Stockholm, Årsta ",
   "url": "https://www.facebook.com/groups/929294497203110/",
   "latitude": "59.2989204999999",
   "longitude": "18.0508926",
   "event_type_name": "FridaysForFuture",
   "start_time": "",
   "start_dt": "",
   "capacity": "",
   "id": "",
   "start_day": "",
   "venue_zip": "",
   "is_official": "1",
   "id_obfuscated": "gpg5bt"
 },
 {
   "name": "FFF Zwolle",
   "location": "Netherlands, Zwolle",
   "url": "https://www.facebook.com/groups/929294497203110/",
   "latitude": "52.5167747",
   "longitude": "6.08302189999999",
   "event_type_name": "FridaysForFuture",
   "start_time": "",
   "start_dt": "",
   "capacity": "",
   "id": "",
   "start_day": "",
   "venue_zip": "",
   "is_official": "1",
   "id_obfuscated": "gpg5bt"
 },
 {
   "name": "FFF Falun",
   "location": "Sverige , Falun",
   "url": "https://www.facebook.com/events/359776141268577/?event_time_id=359776154601909?ti=icl",
   "latitude": "60.60646",
   "longitude": "15.6355",
   "event_type_name": "FridaysForFuture",
   "start_time": "",
   "start_dt": "",
   "capacity": "",
   "id": "",
   "start_day": "",
   "venue_zip": "",
   "is_official": "1",
   "id_obfuscated": "gpg5bt"
 },
 {
   "name": "FFF Pasadena",
   "location": "United States, Pasadena",
   "url": "https://www.facebook.com/groups/929294497203110/",
   "latitude": "34.1477849",
   "longitude": "-118.1445155",
   "event_type_name": "FridaysForFuture",
   "start_time": "",
   "start_dt": "",
   "capacity": "",
   "id": "",
   "start_day": "",
   "venue_zip": "",
   "is_official": "1",
   "id_obfuscated": "gpg5bt"
 },
 {
   "name": "FFF Gettysburg",
   "location": "USA , Gettysburg",
   "url": "https://www.facebook.com/groups/929294497203110/",
   "latitude": "39.8309293",
   "longitude": "-77.2310955",
   "event_type_name": "FridaysForFuture",
   "start_time": "",
   "start_dt": "",
   "capacity": "",
   "id": "",
   "start_day": "",
   "venue_zip": "",
   "is_official": "1",
   "id_obfuscated": "gpg5bt"
 },
 {
   "name": "FFF Sheffield ",
   "location": "UK, Sheffield ",
   "url": "https://www.facebook.com/groups/929294497203110/",
   "latitude": "53.3811289999999",
   "longitude": "-1.470085",
   "event_type_name": "FridaysForFuture",
   "start_time": "",
   "start_dt": "",
   "capacity": "",
   "id": "",
   "start_day": "",
   "venue_zip": "",
   "is_official": "1",
   "id_obfuscated": "gpg5bt"
 },
 {
   "name": "FFF Milan",
   "location": "Italy, Milan",
   "url": "https://www.facebook.com/FFFMilan/",
   "latitude": "45.4642035",
   "longitude": "9.189982",
   "event_type_name": "FridaysForFuture",
   "start_time": "",
   "start_dt": "",
   "capacity": "",
   "id": "",
   "start_day": "",
   "venue_zip": "",
   "is_official": "1",
   "id_obfuscated": "gpg5bt"
 },
 {
   "name": "FFF Visby",
   "location": "Sweden, Visby",
   "url": "https://www.facebook.com/events/346247906200850/",
   "latitude": "57.6348",
   "longitude": "18.29484",
   "event_type_name": "FridaysForFuture",
   "start_time": "",
   "start_dt": "",
   "capacity": "",
   "id": "",
   "start_day": "",
   "venue_zip": "",
   "is_official": "1",
   "id_obfuscated": "gpg5bt"
 },
 {
   "name": "FFF Stockholm",
   "location": "Sweden, Stockholm",
   "url": "https://www.facebook.com/groups/929294497203110/",
   "latitude": "59.3293234999999",
   "longitude": "18.0685808",
   "event_type_name": "FridaysForFuture",
   "start_time": "",
   "start_dt": "",
   "capacity": "",
   "id": "",
   "start_day": "",
   "venue_zip": "",
   "is_official": "1",
   "id_obfuscated": "gpg5bt"
 },
 {
   "name": "FFF Borås",
   "location": "Sweden, Borås",
   "url": "https://www.facebook.com/groups/929294497203110/",
   "latitude": "57.721035",
   "longitude": "12.939819",
   "event_type_name": "FridaysForFuture",
   "start_time": "",
   "start_dt": "",
   "capacity": "",
   "id": "",
   "start_day": "",
   "venue_zip": "",
   "is_official": "1",
   "id_obfuscated": "gpg5bt"
 },
 {
   "name": "FFF Mora",
   "location": "Sweden, Mora",
   "url": "https://facebook.com/KlimatetMora",
   "latitude": "61.0070944",
   "longitude": "14.5172103",
   "event_type_name": "FridaysForFuture",
   "start_time": "",
   "start_dt": "",
   "capacity": "",
   "id": "",
   "start_day": "",
   "venue_zip": "",
   "is_official": "1",
   "id_obfuscated": "gpg5bt"
 },
 {
   "name": "FFF Ånge",
   "location": "Sverige , Ånge",
   "url": "https://www.facebook.com/events/998826623638790/",
   "latitude": "62.5228738",
   "longitude": "15.6589419",
   "event_type_name": "FridaysForFuture",
   "start_time": "",
   "start_dt": "",
   "capacity": "",
   "id": "",
   "start_day": "",
   "venue_zip": "",
   "is_official": "1",
   "id_obfuscated": "gpg5bt"
 },
 {
   "name": "FFF Östersund",
   "location": "Sverige, ÖSTERSUND",
   "url": "https://www.facebook.com/events/377071626197568/",
   "latitude": "63.1766832",
   "longitude": "14.6360681",
   "event_type_name": "FridaysForFuture",
   "start_time": "",
   "start_dt": "",
   "capacity": "",
   "id": "",
   "start_day": "",
   "venue_zip": "",
   "is_official": "1",
   "id_obfuscated": "gpg5bt"
 },
 {
   "name": "FFF Södertälje",
   "location": "Sweden, Södertälje",
   "url": "https://www.facebook.com/events/489066498283643/?ti=icl",
   "latitude": "59.195363",
   "longitude": "17.625689",
   "event_type_name": "FridaysForFuture",
   "start_time": "",
   "start_dt": "",
   "capacity": "",
   "id": "",
   "start_day": "",
   "venue_zip": "",
   "is_official": "1",
   "id_obfuscated": "gpg5bt"
 },
 {
   "name": "FFF Calgary",
   "location": "Canada, Calgary",
   "url": "https://www.facebook.com/groups/929294497203110/",
   "latitude": "51.0486151",
   "longitude": "-114.0708459",
   "event_type_name": "FridaysForFuture",
   "start_time": "",
   "start_dt": "",
   "capacity": "",
   "id": "",
   "start_day": "",
   "venue_zip": "",
   "is_official": "1",
   "id_obfuscated": "gpg5bt"
 },
 {
   "name": "FFF Tampere",
   "location": "Finland, Tampere",
   "url": "https://www.facebook.com/events/1056375227884145/",
   "latitude": "61.4977524",
   "longitude": "23.7609535",
   "event_type_name": "FridaysForFuture",
   "start_time": "",
   "start_dt": "",
   "capacity": "",
   "id": "",
   "start_day": "",
   "venue_zip": "",
   "is_official": "1",
   "id_obfuscated": "gpg5bt"
 },
 {
   "name": "FFF Swansea",
   "location": "UK, Swansea",
   "url": "https://www.facebook.com/groups/929294497203110/",
   "latitude": "51.62144",
   "longitude": "-3.94364599999999",
   "event_type_name": "FridaysForFuture",
   "start_time": "",
   "start_dt": "",
   "capacity": "",
   "id": "",
   "start_day": "",
   "venue_zip": "",
   "is_official": "1",
   "id_obfuscated": "gpg5bt"
 },
 {
   "name": "FFF Annapolis, Maryland",
   "location": "United States of America, Annapolis, Maryland",
   "url": "https://www.facebook.com/events/2270475762982754/",
   "latitude": "38.9784453",
   "longitude": "-76.4921829",
   "event_type_name": "FridaysForFuture",
   "start_time": "",
   "start_dt": "",
   "capacity": "",
   "id": "",
   "start_day": "",
   "venue_zip": "",
   "is_official": "1",
   "id_obfuscated": "gpg5bt"
 },
 {
   "name": "FFF Brighton",
   "location": "UK, Brighton",
   "url": "https://www.facebook.com/events/221779412035086/",
   "latitude": "50.8374127",
   "longitude": "-0.141209",
   "event_type_name": "FridaysForFuture",
   "start_time": "",
   "start_dt": "",
   "capacity": "",
   "id": "",
   "start_day": "",
   "venue_zip": "",
   "is_official": "1",
   "id_obfuscated": "gpg5bt"
 },
 {
   "name": "FFF Preston",
   "location": "UK, Preston",
   "url": "https://www.facebook.com/groups/929294497203110/",
   "latitude": "53.7702509",
   "longitude": "-2.732171",
   "event_type_name": "FridaysForFuture",
   "start_time": "",
   "start_dt": "",
   "capacity": "",
   "id": "",
   "start_day": "",
   "venue_zip": "",
   "is_official": "1",
   "id_obfuscated": "gpg5bt"
 },{
   "name": "FFF Ullapool",
   "location": "UK, Ullapool",
   "url": "https://www.facebook.com/groups/929294497203110/",
   "latitude": "57.895418",
   "longitude": "-5.161313",
   "event_type_name": "FridaysForFuture",
   "start_time": "",
   "start_dt": "",
   "capacity": "",
   "id": "",
   "start_day": "",
   "venue_zip": "",
   "is_official": "1",
   "id_obfuscated": "gpg5bt"
 },
 {
   "name": "FFF Kitchener-Waterloo",
   "location": "Canada, Kitchener-Waterloo",
   "url": "https://www.facebook.com/events/1163394617169359/",
   "latitude": "43.4516395",
   "longitude": "-80.4925337",
   "event_type_name": "FridaysForFuture",
   "start_time": "",
   "start_dt": "",
   "capacity": "",
   "id": "",
   "start_day": "",
   "venue_zip": "",
   "is_official": "1",
   "id_obfuscated": "gpg5bt"
 },
 {
   "name": "FFF London",
   "location": "Canada, London",
   "url": "https://www.facebook.com/events/1882780671849726/",
   "latitude": "51.5073509",
   "longitude": "-0.1277583",
   "event_type_name": "FridaysForFuture",
   "start_time": "",
   "start_dt": "",
   "capacity": "",
   "id": "",
   "start_day": "",
   "venue_zip": "",
   "is_official": "1",
   "id_obfuscated": "gpg5bt"
 },

 
 {
   "name": "FFF Como",
   "location": "Italy, Como",
   "url": "https://www.facebook.com/groups/929294497203110/",
   "latitude": "45.8005304",
   "longitude": "9.0504089",
   "event_type_name": "FridaysForFuture",
   "start_time": "",
   "start_dt": "",
   "capacity": "",
   "id": "",
   "start_day": "",
   "venue_zip": "",
   "is_official": "1",
   "id_obfuscated": "gpg5bt"
 },

 {
   "name": "FFF Bristol",
   "location": "UK, Bristol",
   "url": "https://www.facebook.com/Bristolyouthstrikers4Climate/",
   "latitude": "51.454513",
   "longitude": "-2.58791",
   "event_type_name": "FridaysForFuture",
   "start_time": "",
   "start_dt": "",
   "capacity": "",
   "id": "",
   "start_day": "",
   "venue_zip": "",
   "is_official": "1",
   "id_obfuscated": "gpg5bt"
 },
 {
   "name": "FFF Colombia",
   "location": "Colombia, Colombia",
   "url": "https://www.facebook.com/groups/929294497203110/",
   "latitude": "4.570868",
   "longitude": "-74.297333",
   "event_type_name": "FridaysForFuture",
   "start_time": "",
   "start_dt": "",
   "capacity": "",
   "id": "",
   "start_day": "",
   "venue_zip": "",
   "is_official": "1",
   "id_obfuscated": "gpg5bt"
 },
 {
   "name": "FFF Toronto",
   "location": "Canada, Toronto",
   "url": "https://www.facebook.com/events/297312280921691/",
   "latitude": "43.653226",
   "longitude": "-79.3831843",
   "event_type_name": "FridaysForFuture",
   "start_time": "",
   "start_dt": "",
   "capacity": "",
   "id": "",
   "start_day": "",
   "venue_zip": "",
   "is_official": "1",
   "id_obfuscated": "gpg5bt"
 },
 {
   "name": "FFF Ocean Grove",
   "location": "Australia, Ocean Grove",
   "url": "https://www.facebook.com/groups/929294497203110/",
   "latitude": "40.2120575",
   "longitude": "-74.0065257999999",
   "event_type_name": "FridaysForFuture",
   "start_time": "",
   "start_dt": "",
   "capacity": "",
   "id": "",
   "start_day": "",
   "venue_zip": "",
   "is_official": "1",
   "id_obfuscated": "gpg5bt"
 },
 {
   "name": "FFF Trosa ",
   "location": "Sweden, Trosa ",
   "url": "https://www.facebook.com/groups/1623110534457336/",
   "latitude": "35.9785793",
   "longitude": "-78.9284069999999",
   "event_type_name": "FridaysForFuture",
   "start_time": "",
   "start_dt": "",
   "capacity": "",
   "id": "",
   "start_day": "",
   "venue_zip": "",
   "is_official": "1",
   "id_obfuscated": "gpg5bt"
 },
 {
   "name": "FFF Vancouver",
   "location": "Canada, Vancouver",
   "url": "https://www.facebook.com/events/375794373205723",
   "latitude": "49.2827291",
   "longitude": "-123.1207375",
   "event_type_name": "FridaysForFuture",
   "start_time": "",
   "start_dt": "",
   "capacity": "",
   "id": "",
   "start_day": "",
   "venue_zip": "",
   "is_official": "1",
   "id_obfuscated": "gpg5bt"
 },
 {
   "name": "FFF Palmerston North",
   "location": "New Zealand, Palmerston North",
   "url": "facebook.com/events/238402246903178/",
   "latitude": "-40.3523065",
   "longitude": "175.6082145",
   "event_type_name": "FridaysForFuture",
   "start_time": "",
   "start_dt": "",
   "capacity": "",
   "id": "",
   "start_day": "",
   "venue_zip": "",
   "is_official": "1",
   "id_obfuscated": "gpg5bt"
 },
 {
   "name": "FFF Denver ",
   "location": "United States, Denver ",
   "url": "https://www.facebook.com/groups/929294497203110/",
   "latitude": "39.7392358",
   "longitude": "-104.990251",
   "event_type_name": "FridaysForFuture",
   "start_time": "",
   "start_dt": "",
   "capacity": "",
   "id": "",
   "start_day": "",
   "venue_zip": "",
   "is_official": "1",
   "id_obfuscated": "gpg5bt"
 },





 /*bug on top*/
 {
   "name": "FFF Bournemouth",
   "location": "UK, Bournemouth",
   "url": "https://www.facebook.com/groups/929294497203110/",
   "latitude": "50.719164",
   "longitude": "-1.880769",
   "event_type_name": "FridaysForFuture",
   "start_time": "",
   "start_dt": "",
   "capacity": "",
   "id": "",
   "start_day": "",
   "venue_zip": "",
   "is_official": "1",
   "id_obfuscated": "gpg5bt"
 },
 {
   "name": "FFF Exeter",
   "location": "UK, Exeter",
   "url": "https://www.facebook.com/events/655579168191310/",
   "latitude": "50.718412",
   "longitude": "-3.533899",
   "event_type_name": "FridaysForFuture",
   "start_time": "",
   "start_dt": "",
   "capacity": "",
   "id": "",
   "start_day": "",
   "venue_zip": "",
   "is_official": "1",
   "id_obfuscated": "gpg5bt"
 },
 {
   "name": "FFF Southampton ",
   "location": "UK, Southampton ",
   "url": "https://www.facebook.com/groups/929294497203110/",
   "latitude": "50.9097004",
   "longitude": "-1.4043509",
   "event_type_name": "FridaysForFuture",
   "start_time": "",
   "start_dt": "",
   "capacity": "",
   "id": "",
   "start_day": "",
   "venue_zip": "",
   "is_official": "1",
   "id_obfuscated": "gpg5bt"
 },
 {
   "name": "FFF Geelong",
   "location": "Australia, Geelong",
   "url": "https://www.facebook.com/groups/929294497203110/",
   "latitude": "-38.1499181",
   "longitude": "144.3617186",
   "event_type_name": "FridaysForFuture",
   "start_time": "",
   "start_dt": "",
   "capacity": "",
   "id": "",
   "start_day": "",
   "venue_zip": "",
   "is_official": "1",
   "id_obfuscated": "gpg5bt"
 },
 {
   "name": "FFF Anywhere In Australia",
   "location": "Australia, Anywhere in Australia",
   "url": "https://www.facebook.com/groups/929294497203110/",
   "latitude": "-33.923581",
   "longitude": "151.227413",
   "event_type_name": "FridaysForFuture",
   "start_time": "",
   "start_dt": "",
   "capacity": "",
   "id": "",
   "start_day": "",
   "venue_zip": "",
   "is_official": "1",
   "id_obfuscated": "gpg5bt"
 },
 {
   "name": "FFF Leeds",
   "location": "UK, Leeds",
   "url": "https://www.facebook.com/events/1001608966693880/",
   "latitude": "53.8007554",
   "longitude": "-1.5490774",
   "event_type_name": "FridaysForFuture",
   "start_time": "",
   "start_dt": "",
   "capacity": "",
   "id": "",
   "start_day": "",
   "venue_zip": "",
   "is_official": "1",
   "id_obfuscated": "gpg5bt"
 },
 {
   "name": "FFF Nsukka",
   "location": "Nigeria, Nsukka",
   "url": "https://www.facebook.com/groups/929294497203110/",
   "latitude": "6.8429422",
   "longitude": "7.3732655",
   "event_type_name": "FridaysForFuture",
   "start_time": "",
   "start_dt": "",
   "capacity": "",
   "id": "",
   "start_day": "",
   "venue_zip": "",
   "is_official": "1",
   "id_obfuscated": "gpg5bt"
 },
 {
   "name": "FFF Istanbul",
   "location": "Turkey, Istanbul",
   "url": "https://www.facebook.com/groups/929294497203110/",
   "latitude": "41.0082376",
   "longitude": "28.9783589",
   "event_type_name": "FridaysForFuture",
   "start_time": "",
   "start_dt": "",
   "capacity": "",
   "id": "",
   "start_day": "",
   "venue_zip": "",
   "is_official": "1",
   "id_obfuscated": "gpg5bt"
 },
 {
   "name": "FFF Paris",
   "location": "France, Paris",
   "url": "https://www.facebook.com/groups/929294497203110/",
   "latitude": "48.856614",
   "longitude": "2.3522219",
   "event_type_name": "FridaysForFuture",
   "start_time": "",
   "start_dt": "",
   "capacity": "",
   "id": "",
   "start_day": "",
   "venue_zip": "",
   "is_official": "1",
   "id_obfuscated": "gpg5bt"
 },
 {
   "name": "FFF Roma",
   "location": "Italy, Roma",
   "url": "https://www.facebook.com/groups/929294497203110/",
   "latitude": "36.0766378",
   "longitude": "-95.9036356",
   "event_type_name": "FridaysForFuture",
   "start_time": "",
   "start_dt": "",
   "capacity": "",
   "id": "",
   "start_day": "",
   "venue_zip": "",
   "is_official": "1",
   "id_obfuscated": "gpg5bt"
 },
 {
   "name": "FFF Kassel",
   "location": "Germany, Kassel",
   "url": "https://www.facebook.com/groups/929294497203110/",
   "latitude": "51.3127114",
   "longitude": "9.4797461",
   "event_type_name": "FridaysForFuture",
   "start_time": "",
   "start_dt": "",
   "capacity": "",
   "id": "",
   "start_day": "",
   "venue_zip": "",
   "is_official": "1",
   "id_obfuscated": "gpg5bt"
 },
 {
   "name": "FFF Trieste",
   "location": "Italy, Trieste",
   "url": "https://www.facebook.com/events/1973320836296211/?ti=icl",
   "latitude": "45.6495264",
   "longitude": "13.7768182",
   "event_type_name": "FridaysForFuture",
   "start_time": "",
   "start_dt": "",
   "capacity": "",
   "id": "",
   "start_day": "",
   "venue_zip": "",
   "is_official": "1",
   "id_obfuscated": "gpg5bt"
 },
 {
   "name": "FFF Skåne",
   "location": "Sweden , Skåne",
   "url": "https://www.facebook.com/groups/929294497203110/",
   "latitude": "55.9902571999999",
   "longitude": "13.5957692",
   "event_type_name": "FridaysForFuture",
   "start_time": "",
   "start_dt": "",
   "capacity": "",
   "id": "",
   "start_day": "",
   "venue_zip": "",
   "is_official": "1",
   "id_obfuscated": "gpg5bt"
 },
 {
   "name": "FFF Helsingborg",
   "location": "Sweden, Helsingborg",
   "url": "https://www.facebook.com/groups/929294497203110/",
   "latitude": "56.0464674",
   "longitude": "12.6945121",
   "event_type_name": "FridaysForFuture",
   "start_time": "",
   "start_dt": "",
   "capacity": "",
   "id": "",
   "start_day": "",
   "venue_zip": "",
   "is_official": "1",
   "id_obfuscated": "gpg5bt"
 },
 {
   "name": "FFF Ljubljana",
   "location": "Slovenia, Ljubljana",
   "url": "https://www.facebook.com/groups/929294497203110/",
   "latitude": "46.0569465",
   "longitude": "14.5057515",
   "event_type_name": "FridaysForFuture",
   "start_time": "",
   "start_dt": "",
   "capacity": "",
   "id": "",
   "start_day": "",
   "venue_zip": "",
   "is_official": "1",
   "id_obfuscated": "gpg5bt"
 },
 {
   "name": "FFF Landskrona",
   "location": "Sweden, Landskrona",
   "url": "https://www.facebook.com/events/299875897386073/",
   "latitude": "55.8703477",
   "longitude": "12.8300802",
   "event_type_name": "FridaysForFuture",
   "start_time": "",
   "start_dt": "",
   "capacity": "",
   "id": "",
   "start_day": "",
   "venue_zip": "",
   "is_official": "1",
   "id_obfuscated": "gpg5bt"
 },
 {
   "name": "FFF Sundebru",
   "location": "Norway, Sundebru",
   "url": "https://www.facebook.com/groups/929294497203110/",
   "latitude": "58.841399",
   "longitude": "9.091899",
   "event_type_name": "FridaysForFuture",
   "start_time": "",
   "start_dt": "",
   "capacity": "",
   "id": "",
   "start_day": "",
   "venue_zip": "",
   "is_official": "1",
   "id_obfuscated": "gpg5bt"
 },
 {
   "name": "FFF Vaasa",
   "location": "Finland, Vaasa",
   "url": "https://www.facebook.com/groups/929294497203110/",
   "latitude": "63.0950889999999",
   "longitude": "21.6164564",
   "event_type_name": "FridaysForFuture",
   "start_time": "",
   "start_dt": "",
   "capacity": "",
   "id": "",
   "start_day": "",
   "venue_zip": "",
   "is_official": "1",
   "id_obfuscated": "gpg5bt"
 },
 {
   "name": "FFF Turin",
   "location": "Italy, Turin",
   "url": "https://www.facebook.com/groups/929294497203110/",
   "latitude": "45.0703393",
   "longitude": "7.686864",
   "event_type_name": "FridaysForFuture",
   "start_time": "",
   "start_dt": "",
   "capacity": "",
   "id": "",
   "start_day": "",
   "venue_zip": "",
   "is_official": "1",
   "id_obfuscated": "gpg5bt"
 },
 {
   "name": "FFF Roma",
   "location": "Italia, Roma",
   "url": "https://www.facebook.com/events/333574980700786/335180183873599/",
   "latitude": "36.0766378",
   "longitude": "-95.9036356",
   "event_type_name": "FridaysForFuture",
   "start_time": "",
   "start_dt": "",
   "capacity": "",
   "id": "",
   "start_day": "",
   "venue_zip": "",
   "is_official": "1",
   "id_obfuscated": "gpg5bt"
 },
 {
   "name": "FFF Gothenburg",
   "location": "Sweden, Gothenburg",
   "url": "https://www.facebook.com/groups/929294497203110/",
   "latitude": "57.70887",
   "longitude": "11.97456",
   "event_type_name": "FridaysForFuture",
   "start_time": "",
   "start_dt": "",
   "capacity": "",
   "id": "",
   "start_day": "",
   "venue_zip": "",
   "is_official": "1",
   "id_obfuscated": "gpg5bt"
 },
 {
   "name": "FFF Karlskrona",
   "location": "Sweden, Karlskrona",
   "url": "https://www.facebook.com/fridaysforfuturekarlskrona/?modal=admin_todo_tour",
   "latitude": "56.161224",
   "longitude": "15.5869001",
   "event_type_name": "FridaysForFuture",
   "start_time": "",
   "start_dt": "",
   "capacity": "",
   "id": "",
   "start_day": "",
   "venue_zip": "",
   "is_official": "1",
   "id_obfuscated": "gpg5bt"
 },
 {
   "name": "FFF Cork City",
   "location": "Ireland, Cork City",
   "url": "https://www.facebook.com/groups/929294497203110/",
   "latitude": "51.8985143",
   "longitude": "-8.4756035",
   "event_type_name": "FridaysForFuture",
   "start_time": "",
   "start_dt": "",
   "capacity": "",
   "id": "",
   "start_day": "",
   "venue_zip": "",
   "is_official": "1",
   "id_obfuscated": "gpg5bt"
 },
 {
   "name": "FFF Edinburgh",
   "location": "UK, Edinburgh",
   "url": "https://www.facebook.com/events/2228599534063775/",
   "latitude": "55.953252",
   "longitude": "-3.188267",
   "event_type_name": "FridaysForFuture",
   "start_time": "",
   "start_dt": "",
   "capacity": "",
   "id": "",
   "start_day": "",
   "venue_zip": "",
   "is_official": "1",
   "id_obfuscated": "gpg5bt"
 },
 {
   "name": "FFF Stockholm",
   "location": "Sverige, Stockholm",
   "url": "https://www.facebook.com/Fridays-for-future-Stockholm-University-292597138097335/",
   "latitude": "59.3293234999999",
   "longitude": "18.0685808",
   "event_type_name": "FridaysForFuture",
   "start_time": "",
   "start_dt": "",
   "capacity": "",
   "id": "",
   "start_day": "",
   "venue_zip": "",
   "is_official": "1",
   "id_obfuscated": "gpg5bt"
 },
 {
   "name": "FFF Vizille",
   "location": "France, Vizille",
   "url": "https://www.facebook.com/groups/929294497203110/",
   "latitude": "45.077318",
   "longitude": "5.772412",
   "event_type_name": "FridaysForFuture",
   "start_time": "",
   "start_dt": "",
   "capacity": "",
   "id": "",
   "start_day": "",
   "venue_zip": "",
   "is_official": "1",
   "id_obfuscated": "gpg5bt"
 },
 {
   "name": "FFF Dublin",
   "location": "Ireland, Dublin",
   "url": "https://www.facebook.com/groups/929294497203110/",
   "latitude": "53.3498053",
   "longitude": "-6.2603097",
   "event_type_name": "FridaysForFuture",
   "start_time": "",
   "start_dt": "",
   "capacity": "",
   "id": "",
   "start_day": "",
   "venue_zip": "",
   "is_official": "1",
   "id_obfuscated": "gpg5bt"
 },
 {
   "name": "FFF Orange, Ca",
   "location": "USA, California, Orange, CA",
   "url": "https://www.facebook.com/groups/929294497203110/",
   "latitude": "33.7879139",
   "longitude": "-117.8531007",
   "event_type_name": "FridaysForFuture",
   "start_time": "",
   "start_dt": "",
   "capacity": "",
   "id": "",
   "start_day": "",
   "venue_zip": "",
   "is_official": "1",
   "id_obfuscated": "gpg5bt"
 },
 {
   "name": "FFF London",
   "location": "UK, London",
   "url": "https://www.facebook.com/groups/929294497203110/",
   "latitude": "51.5073509",
   "longitude": "-0.1277583",
   "event_type_name": "FridaysForFuture",
   "start_time": "",
   "start_dt": "",
   "capacity": "",
   "id": "",
   "start_day": "",
   "venue_zip": "",
   "is_official": "1",
   "id_obfuscated": "gpg5bt"
 },
 {
   "name": "FFF Stroud",
   "location": "UK, Stroud",
   "url": "https://www.facebook.com/groups/929294497203110/",
   "latitude": "51.745734",
   "longitude": "-2.217758",
   "event_type_name": "FridaysForFuture",
   "start_time": "",
   "start_dt": "",
   "capacity": "",
   "id": "",
   "start_day": "",
   "venue_zip": "",
   "is_official": "1",
   "id_obfuscated": "gpg5bt"
 },
 {
   "name": "FFF Alingsås",
   "location": "Sweden, ALINGSÅS",
   "url": "https://www.facebook.com/groups/929294497203110/",
   "latitude": "57.9300205",
   "longitude": "12.5362113",
   "event_type_name": "FridaysForFuture",
   "start_time": "",
   "start_dt": "",
   "capacity": "",
   "id": "",
   "start_day": "",
   "venue_zip": "",
   "is_official": "1",
   "id_obfuscated": "gpg5bt"
 },
 {
   "name": "FFF Aneby",
   "location": "Alingsås, ANEBY",
   "url": "https://www.facebook.com/groups/929294497203110/",
   "latitude": "57.838521",
   "longitude": "14.8178022",
   "event_type_name": "FridaysForFuture",
   "start_time": "",
   "start_dt": "",
   "capacity": "",
   "id": "",
   "start_day": "",
   "venue_zip": "",
   "is_official": "1",
   "id_obfuscated": "gpg5bt"
 },
 {
   "name": "FFF Halmstad",
   "location": "Sweden, HALMSTAD",
   "url": "https://www.facebook.com/groups/929294497203110/",
   "latitude": "56.6743748",
   "longitude": "12.8577885",
   "event_type_name": "FridaysForFuture",
   "start_time": "",
   "start_dt": "",
   "capacity": "",
   "id": "",
   "start_day": "",
   "venue_zip": "",
   "is_official": "1",
   "id_obfuscated": "gpg5bt"
 },
 {
   "name": "FFF Luleå",
   "location": "Sweden, LULEÅ",
   "url": "https://www.facebook.com/groups/929294497203110/",
   "latitude": "65.584819",
   "longitude": "22.1567026",
   "event_type_name": "FridaysForFuture",
   "start_time": "",
   "start_dt": "",
   "capacity": "",
   "id": "",
   "start_day": "",
   "venue_zip": "",
   "is_official": "1",
   "id_obfuscated": "gpg5bt"
 },
 {
   "name": "FFF Stadshuset, Rådhusgatan 11",
   "location": "Luleå, Stadshuset, Rådhusgatan 11",
   "url": "https://www.facebook.com/fridaysforfuturenorrbotten/",
   "latitude": "62.3894062",
   "longitude": "17.3111666",
   "event_type_name": "FridaysForFuture",
   "start_time": "",
   "start_dt": "",
   "capacity": "",
   "id": "",
   "start_day": "",
   "venue_zip": "",
   "is_official": "1",
   "id_obfuscated": "gpg5bt"
 },
 {
   "name": "FFF Lysekil",
   "location": "Sweden, Lysekil",
   "url": "https://www.facebook.com/groups/929294497203110/",
   "latitude": "58.2755729999999",
   "longitude": "11.435558",
   "event_type_name": "FridaysForFuture",
   "start_time": "",
   "start_dt": "",
   "capacity": "",
   "id": "",
   "start_day": "",
   "venue_zip": "",
   "is_official": "1",
   "id_obfuscated": "gpg5bt"
 },
 {
   "name": "FFF Malmö Stadshus",
   "location": "Sweden, Malmö stadshus",
   "url": "https://www.facebook.com/groups/929294497203110/",
   "latitude": "55.5979986",
   "longitude": "13.0074229",
   "event_type_name": "FridaysForFuture",
   "start_time": "",
   "start_dt": "",
   "capacity": "",
   "id": "",
   "start_day": "",
   "venue_zip": "",
   "is_official": "1",
   "id_obfuscated": "gpg5bt"
 },
 {
   "name": "FFF Norrtälje",
   "location": "Sweden, Norrtälje",
   "url": "https://www.facebook.com/events/723286268043385/",
   "latitude": "59.7595841",
   "longitude": "18.7013584",
   "event_type_name": "FridaysForFuture",
   "start_time": "",
   "start_dt": "",
   "capacity": "",
   "id": "",
   "start_day": "",
   "venue_zip": "",
   "is_official": "1",
   "id_obfuscated": "gpg5bt"
 },
 {
   "name": "FFF Örebro",
   "location": "Sweden, Örebro",
   "url": "https://www.facebook.com/groups/929294497203110/",
   "latitude": "59.2752626",
   "longitude": "15.2134105",
   "event_type_name": "FridaysForFuture",
   "start_time": "",
   "start_dt": "",
   "capacity": "",
   "id": "",
   "start_day": "",
   "venue_zip": "",
   "is_official": "1",
   "id_obfuscated": "gpg5bt"
 },
 {
   "name": "FFF Simrishamn",
   "location": "Sweden, Simrishamn",
   "url": "https://www.facebook.com/groups/929294497203110/",
   "latitude": "55.5573959",
   "longitude": "14.3489651",
   "event_type_name": "FridaysForFuture",
   "start_time": "",
   "start_dt": "",
   "capacity": "",
   "id": "",
   "start_day": "",
   "venue_zip": "",
   "is_official": "1",
   "id_obfuscated": "gpg5bt"
 },
 {
   "name": "FFF Uppsala",
   "location": "Sweden, Uppsala",
   "url": "https://www.facebook.com/groups/929294497203110/",
   "latitude": "59.8585638",
   "longitude": "17.6389267",
   "event_type_name": "FridaysForFuture",
   "start_time": "",
   "start_dt": "",
   "capacity": "",
   "id": "",
   "start_day": "",
   "venue_zip": "",
   "is_official": "1",
   "id_obfuscated": "gpg5bt"
 },
 {
   "name": "FFF Vallentuna",
   "location": "Sweden, Vallentuna",
   "url": "https://www.facebook.com/groups/929294497203110/",
   "latitude": "59.5356999999999",
   "longitude": "18.078017",
   "event_type_name": "FridaysForFuture",
   "start_time": "",
   "start_dt": "",
   "capacity": "",
   "id": "",
   "start_day": "",
   "venue_zip": "",
   "is_official": "1",
   "id_obfuscated": "gpg5bt"
 },
 {
   "name": "FFF Västerås",
   "location": "Sweden, Västerås",
   "url": "https://www.facebook.com/groups/929294497203110/",
   "latitude": "59.6099004999999",
   "longitude": "16.5448092",
   "event_type_name": "FridaysForFuture",
   "start_time": "",
   "start_dt": "",
   "capacity": "",
   "id": "",
   "start_day": "",
   "venue_zip": "",
   "is_official": "1",
   "id_obfuscated": "gpg5bt"
 },
 {
   "name": "FFF Västervik 12-13",
   "location": "Västervik 12-13",
   "url": "https://www.facebook.com/groups/929294497203110/",
   "latitude": "57.7577155999999",
   "longitude": "16.6369759",
   "event_type_name": "FridaysForFuture",
   "start_time": "",
   "start_dt": "",
   "capacity": "",
   "id": "",
   "start_day": "",
   "venue_zip": "",
   "is_official": "1",
   "id_obfuscated": "gpg5bt"
 },


 /*ajout 7 mars - Climate Strike France (fichier françois)*/

 {
   "name": "Climate Strike - Aix-En-Provence",
   "location": "Aix-En-Provence, France",
   "url": "https://www.facebook.com/events/540972809742266/",
   "latitude": "43.529742",
   "longitude": "5.44742699999999",
   "event_type_name": "FridaysForFuture",
   "start_time": "",
   "start_dt": "",
   "capacity": "",
   "id": "",
   "start_day": "2019-03-15",
   "venue_zip": "",
   "is_official": "1",
   "id_obfuscated": ""
 },
 {
   "name": "Climate Strike - Albi",
   "location": "Albi, France",
   "url": "https://www.facebook.com/events/377405346158161/",
   "latitude": "43.9250853",
   "longitude": "2.1486413",
   "event_type_name": "FridaysForFuture",
   "start_time": "",
   "start_dt": "",
   "capacity": "",
   "id": "",
   "start_day": "2019-03-15",
   "venue_zip": "",
   "is_official": "1",
   "id_obfuscated": ""
 },
 {
   "name": "Climate Strike - Alfortville",
   "location": "Alfortville, France",
   "url": "https://instagram.com/mobilisation_lyceenne_dalf?utm_source=ig_profile_share&igshid=8svmp54m1x1s",
   "latitude": "48.80093",
   "longitude": "2.422317",
   "event_type_name": "FridaysForFuture",
   "start_time": "",
   "start_dt": "",
   "capacity": "",
   "id": "",
   "start_day": "2019-03-15",
   "venue_zip": "",
   "is_official": "1",
   "id_obfuscated": ""
 },
 {
   "name": "Climate Strike - Amiens",
   "location": "Amiens, France",
   "url": "https://www.facebook.com/events/562420780901064/",
   "latitude": "49.894067",
   "longitude": "2.295753",
   "event_type_name": "FridaysForFuture",
   "start_time": "",
   "start_dt": "",
   "capacity": "",
   "id": "",
   "start_day": "2019-03-15",
   "venue_zip": "",
   "is_official": "1",
   "id_obfuscated": ""
 },
 {
   "name": "Climate Strike - Angers",
   "location": "Angers, France",
   "url": "https://www.facebook.com/events/816774028660188/",
   "latitude": "47.4711615999999",
   "longitude": "-0.5518257",
   "event_type_name": "FridaysForFuture",
   "start_time": "",
   "start_dt": "",
   "capacity": "",
   "id": "",
   "start_day": "2019-03-15",
   "venue_zip": "",
   "is_official": "1",
   "id_obfuscated": ""
 },
 {
   "name": "Climate Strike - Angoulème",
   "location": "Angoulème, France",
   "url": "https://www.facebook.com/groups/282261139116075/",
   "latitude": "45.648377",
   "longitude": "0.1562369",
   "event_type_name": "FridaysForFuture",
   "start_time": "",
   "start_dt": "",
   "capacity": "",
   "id": "",
   "start_day": "2019-03-15",
   "venue_zip": "",
   "is_official": "1",
   "id_obfuscated": ""
 },
 {
   "name": "Climate Strike - Annecy",
   "location": "Annecy, France",
   "url": "https://www.facebook.com/events/1148751515295004/",
   "latitude": "45.899247",
   "longitude": "6.129384",
   "event_type_name": "FridaysForFuture",
   "start_time": "",
   "start_dt": "",
   "capacity": "",
   "id": "",
   "start_day": "2019-03-15",
   "venue_zip": "",
   "is_official": "1",
   "id_obfuscated": ""
 },
 {
   "name": "Climate Strike - Argelès-Sur-Mer",
   "location": "Argelès-Sur-Mer, France",
   "url": "https://instagram.com/manif.bourquin?utm_source=ig_profile_share&igshid=1uh2q6i94nd28",
   "latitude": "42.546214",
   "longitude": "3.022911",
   "event_type_name": "FridaysForFuture",
   "start_time": "",
   "start_dt": "",
   "capacity": "",
   "id": "",
   "start_day": "2019-03-15",
   "venue_zip": "",
   "is_official": "1",
   "id_obfuscated": ""
 },
 {
   "name": "Climate Strike - Aubagne",
   "location": "Aubagne, France",
   "url": "https://ism-aubagne.fr/",
   "latitude": "43.2926781",
   "longitude": "5.5676425",
   "event_type_name": "FridaysForFuture",
   "start_time": "",
   "start_dt": "",
   "capacity": "",
   "id": "",
   "start_day": "2019-03-15",
   "venue_zip": "",
   "is_official": "1",
   "id_obfuscated": ""
 },
 {
   "name": "Climate Strike - Auray",
   "location": "Auray, France",
   "url": "https://www.facebook.com/events/1083753101796066/?ti=cl",
   "latitude": "47.666491",
   "longitude": "-2.983767",
   "event_type_name": "FridaysForFuture",
   "start_time": "",
   "start_dt": "",
   "capacity": "",
   "id": "",
   "start_day": "2019-03-15",
   "venue_zip": "",
   "is_official": "1",
   "id_obfuscated": ""
 },
 {
   "name": "Climate Strike - Auxerre",
   "location": "Auxerre, France",
   "url": "https://www.instagram.com/youthforclimateauxerre",
   "latitude": "47.798202",
   "longitude": "3.573781",
   "event_type_name": "FridaysForFuture",
   "start_time": "",
   "start_dt": "",
   "capacity": "",
   "id": "",
   "start_day": "2019-03-15",
   "venue_zip": "",
   "is_official": "1",
   "id_obfuscated": ""
 },

 {
   "name": "Climate Strike - Avignon",
   "location": "Avignon, France",
   "url": "https://www.facebook.com/events/563269567506518/",
   "latitude": "43.949317",
   "longitude": "4.805528",
   "event_type_name": "FridaysForFuture",
   "start_time": "",
   "start_dt": "",
   "capacity": "",
   "id": "",
   "start_day": "2019-03-15",
   "venue_zip": "",
   "is_official": "1",
   "id_obfuscated": ""
 },
 {
   "name": "Climate Strike - Avranches",
   "location": "Avranches, France",
   "url": "https://www.instagram.com/fridaysforfutureavranches/",
   "latitude": "48.686843",
   "longitude": "-1.36166",
   "event_type_name": "FridaysForFuture",
   "start_time": "",
   "start_dt": "",
   "capacity": "",
   "id": "",
   "start_day": "2019-03-15",
   "venue_zip": "",
   "is_official": "1",
   "id_obfuscated": ""
 },
 {
   "name": "Climate Strike - Beauvais",
   "location": "Beauvais, France",
   "url": "https://www.facebook.com/events/2062039874094890/",
   "latitude": "49.4295386999999",
   "longitude": "2.0807123",
   "event_type_name": "FridaysForFuture",
   "start_time": "",
   "start_dt": "",
   "capacity": "",
   "id": "",
   "start_day": "2019-03-15",
   "venue_zip": "",
   "is_official": "1",
   "id_obfuscated": ""
 },
 {
   "name": "Climate Strike - Bellignat",
   "location": "Bellignat, France",
   "url": "https://www.facebook.com/groups/FridaysForFuture.ArbezCarme/",
   "latitude": "46.242107",
   "longitude": "5.629371",
   "event_type_name": "FridaysForFuture",
   "start_time": "",
   "start_dt": "",
   "capacity": "",
   "id": "",
   "start_day": "2019-03-15",
   "venue_zip": "",
   "is_official": "1",
   "id_obfuscated": ""
 },
 {
   "name": "Climate Strike - Besançon",
   "location": "Besançon, France",
   "url": "https://www.facebook.com/events/866327970376685/",
   "latitude": "47.237829",
   "longitude": "6.02405389999999",
   "event_type_name": "FridaysForFuture",
   "start_time": "",
   "start_dt": "",
   "capacity": "",
   "id": "",
   "start_day": "2019-03-15",
   "venue_zip": "",
   "is_official": "1",
   "id_obfuscated": ""
 },
 {
   "name": "Climate Strike - Blois",
   "location": "Blois, France",
   "url": "https://www.facebook.com/events/356185608441819/",
   "latitude": "47.5860920999999",
   "longitude": "1.3359475",
   "event_type_name": "FridaysForFuture",
   "start_time": "",
   "start_dt": "",
   "capacity": "",
   "id": "",
   "start_day": "2019-03-15",
   "venue_zip": "",
   "is_official": "1",
   "id_obfuscated": ""
 },
 {
   "name": "Climate Strike - Bordeaux",
   "location": "Bordeaux, France",
   "url": "https://www.facebook.com/events/2091217590969724/",
   "latitude": "44.837789",
   "longitude": "-0.57918",
   "event_type_name": "FridaysForFuture",
   "start_time": "",
   "start_dt": "",
   "capacity": "",
   "id": "",
   "start_day": "2019-03-15",
   "venue_zip": "",
   "is_official": "1",
   "id_obfuscated": ""
 },
 {
   "name": "Climate Strike - Bourg-En-Bresse",
   "location": "Bourg-En-Bresse, France",
   "url": "https://www.instagram.com/greveclimat/",
   "latitude": "46.2051674999999",
   "longitude": "5.2255007",
   "event_type_name": "FridaysForFuture",
   "start_time": "",
   "start_dt": "",
   "capacity": "",
   "id": "",
   "start_day": "2019-03-15",
   "venue_zip": "",
   "is_official": "1",
   "id_obfuscated": ""
 },
 {
   "name": "Climate Strike - Bourges",
   "location": "Bourges, France",
   "url": "https://www.facebook.com/events/406737849899029/",
   "latitude": "47.081012",
   "longitude": "2.398782",
   "event_type_name": "FridaysForFuture",
   "start_time": "",
   "start_dt": "",
   "capacity": "",
   "id": "",
   "start_day": "2019-03-15",
   "venue_zip": "",
   "is_official": "1",
   "id_obfuscated": ""
 },
 {
   "name": "Climate Strike - Brest",
   "location": "Brest, France",
   "url": "https://www.facebook.com/events/2646678292040866/",
   "latitude": "48.390394",
   "longitude": "-4.486076",
   "event_type_name": "FridaysForFuture",
   "start_time": "",
   "start_dt": "",
   "capacity": "",
   "id": "",
   "start_day": "2019-03-15",
   "venue_zip": "",
   "is_official": "1",
   "id_obfuscated": ""
 },
 {
   "name": "Climate Strike - Brignemont",
   "location": "Brignemont, France",
   "url": "https://www.facebook.com/greveclimatbrignemont31",
   "latitude": "43.78097",
   "longitude": "0.987919",
   "event_type_name": "FridaysForFuture",
   "start_time": "",
   "start_dt": "",
   "capacity": "",
   "id": "",
   "start_day": "2019-03-15",
   "venue_zip": "",
   "is_official": "1",
   "id_obfuscated": ""
 },
 {
   "name": "Climate Strike - Caen",
   "location": "Caen, France",
   "url": "https://www.facebook.com/events/1101899186679922/",
   "latitude": "49.182863",
   "longitude": "-0.370679",
   "event_type_name": "FridaysForFuture",
   "start_time": "",
   "start_dt": "",
   "capacity": "",
   "id": "",
   "start_day": "2019-03-15",
   "venue_zip": "",
   "is_official": "1",
   "id_obfuscated": ""
 },
 {
   "name": "Climate Strike - Cambrai",
   "location": "Cambrai, France",
   "url": "https://www.facebook.com/events/2271164856502015/?ti=cl",
   "latitude": "50.173538",
   "longitude": "3.236633",
   "event_type_name": "FridaysForFuture",
   "start_time": "",
   "start_dt": "",
   "capacity": "",
   "id": "",
   "start_day": "2019-03-15",
   "venue_zip": "",
   "is_official": "1",
   "id_obfuscated": ""
 },
 {
   "name": "Climate Strike - Cannes",
   "location": "Cannes, France",
   "url": "https://www.facebook.com/events/297664654182678/",
   "latitude": "43.552847",
   "longitude": "7.017369",
   "event_type_name": "FridaysForFuture",
   "start_time": "",
   "start_dt": "",
   "capacity": "",
   "id": "",
   "start_day": "2019-03-15",
   "venue_zip": "",
   "is_official": "1",
   "id_obfuscated": ""
 },
 {
   "name": "Climate Strike - Casablanca",
   "location": "Casablanca, France",
   "url": "https://web.facebook.com/profile.php?id=100034144145284",
   "latitude": "33.5731104",
   "longitude": "-7.58984339999999",
   "event_type_name": "FridaysForFuture",
   "start_time": "",
   "start_dt": "",
   "capacity": "",
   "id": "",
   "start_day": "2019-03-15",
   "venue_zip": "",
   "is_official": "1",
   "id_obfuscated": ""
 },
 {
   "name": "Climate Strike - Cergy",
   "location": "Cergy, France",
   "url": "https://www.instagram.com/valdecolo/",
   "latitude": "49.0356169999999",
   "longitude": "2.060325",
   "event_type_name": "FridaysForFuture",
   "start_time": "",
   "start_dt": "",
   "capacity": "",
   "id": "",
   "start_day": "2019-03-15",
   "venue_zip": "",
   "is_official": "1",
   "id_obfuscated": ""
 },
 {
   "name": "Climate Strike - Châlons En Champagne",
   "location": "Châlons En Champagne, France",
   "url": "https://www.instagram.com/fridaysforfuture.chalons",
   "latitude": "48.956682",
   "longitude": "4.363073",
   "event_type_name": "FridaysForFuture",
   "start_time": "",
   "start_dt": "",
   "capacity": "",
   "id": "",
   "start_day": "2019-03-15",
   "venue_zip": "",
   "is_official": "1",
   "id_obfuscated": ""
 },
 {
   "name": "Climate Strike - Chalon-Sur-Saône",
   "location": "Chalon-Sur-Saône, France",
   "url": "https://www.facebook.com/youthforclimatechalon/",
   "latitude": "46.780764",
   "longitude": "4.853947",
   "event_type_name": "FridaysForFuture",
   "start_time": "",
   "start_dt": "",
   "capacity": "",
   "id": "",
   "start_day": "2019-03-15",
   "venue_zip": "",
   "is_official": "1",
   "id_obfuscated": ""
 },
 {
   "name": "Climate Strike - Chambéry",
   "location": "Chambéry, France",
   "url": "https://www.facebook.com/youthforclimatechambery/",
   "latitude": "45.564601",
   "longitude": "5.917781",
   "event_type_name": "FridaysForFuture",
   "start_time": "",
   "start_dt": "",
   "capacity": "",
   "id": "",
   "start_day": "2019-03-15",
   "venue_zip": "",
   "is_official": "1",
   "id_obfuscated": ""
 },
 {
   "name": "Climate Strike - Chartres",
   "location": "Chartres, France",
   "url": "https://www.facebook.com/Gr%C3%A8ve-pour-le-Climat-Chartres-610876689359058/",
   "latitude": "48.4438539999999",
   "longitude": "1.489012",
   "event_type_name": "FridaysForFuture",
   "start_time": "",
   "start_dt": "",
   "capacity": "",
   "id": "",
   "start_day": "2019-03-15",
   "venue_zip": "",
   "is_official": "1",
   "id_obfuscated": ""
 },
 {
   "name": "Climate Strike - Château-Gontier",
   "location": "Château-Gontier, France",
   "url": "https://www.facebook.com/events/2206634579589778/?ti=cl",
   "latitude": "47.8267669",
   "longitude": "-0.7069",
   "event_type_name": "FridaysForFuture",
   "start_time": "",
   "start_dt": "",
   "capacity": "",
   "id": "",
   "start_day": "2019-03-15",
   "venue_zip": "",
   "is_official": "1",
   "id_obfuscated": ""
 },
 {
   "name": "Climate Strike - Châtellerault",
   "location": "Châtellerault, France",
   "url": "https://www.instagram.com/fff.chatellerault/",
   "latitude": "46.816487",
   "longitude": "0.548146",
   "event_type_name": "FridaysForFuture",
   "start_time": "",
   "start_dt": "",
   "capacity": "",
   "id": "",
   "start_day": "2019-03-15",
   "venue_zip": "",
   "is_official": "1",
   "id_obfuscated": ""
 },
 {
   "name": "Climate Strike - Cherbourg",
   "location": "Cherbourg, France",
   "url": "https://www.facebook.com/events/385891315542085/",
   "latitude": "49.6337308",
   "longitude": "-1.622137",
   "event_type_name": "FridaysForFuture",
   "start_time": "",
   "start_dt": "",
   "capacity": "",
   "id": "",
   "start_day": "2019-03-15",
   "venue_zip": "",
   "is_official": "1",
   "id_obfuscated": ""
 },
 {
   "name": "Climate Strike - Cholet",
   "location": "Cholet, France",
   "url": "https://www.facebook.com/events/237753087177241/",
   "latitude": "47.059407",
   "longitude": "-0.879787",
   "event_type_name": "FridaysForFuture",
   "start_time": "",
   "start_dt": "",
   "capacity": "",
   "id": "",
   "start_day": "2019-03-15",
   "venue_zip": "",
   "is_official": "1",
   "id_obfuscated": ""
 },
 {
   "name": "Climate Strike - Clermont-Ferrand",
   "location": "Clermont-Ferrand, France",
   "url": "https://www.facebook.com/events/381935479022570/",
   "latitude": "45.7772219999999",
   "longitude": "3.087025",
   "event_type_name": "FridaysForFuture",
   "start_time": "",
   "start_dt": "",
   "capacity": "",
   "id": "",
   "start_day": "2019-03-15",
   "venue_zip": "",
   "is_official": "1",
   "id_obfuscated": ""
 },
 {
   "name": "Climate Strike - Colmar",
   "location": "Colmar, France",
   "url": "https://www.facebook.com/Youth-For-Climate-Colmar-2110181899030708/",
   "latitude": "48.0793589",
   "longitude": "7.35851199999999",
   "event_type_name": "FridaysForFuture",
   "start_time": "",
   "start_dt": "",
   "capacity": "",
   "id": "",
   "start_day": "2019-03-15",
   "venue_zip": "",
   "is_official": "1",
   "id_obfuscated": ""
 },
 {
   "name": "Climate Strike - Commercy",
   "location": "Commercy, France",
   "url": "https://instagram.com/schoolstrike_vogt?utm_source=ig_profile_share&igshid=1o5g7dfgxpqwg",
   "latitude": "48.763802",
   "longitude": "5.59234799999999",
   "event_type_name": "FridaysForFuture",
   "start_time": "",
   "start_dt": "",
   "capacity": "",
   "id": "",
   "start_day": "2019-03-15",
   "venue_zip": "",
   "is_official": "1",
   "id_obfuscated": ""
 },
 {
   "name": "Climate Strike - Compiègne",
   "location": "Compiègne, France",
   "url": "https://www.facebook.com/events/259544281590824/",
   "latitude": "49.4178159999999",
   "longitude": "2.826145",
   "event_type_name": "FridaysForFuture",
   "start_time": "",
   "start_dt": "",
   "capacity": "",
   "id": "",
   "start_day": "2019-03-15",
   "venue_zip": "",
   "is_official": "1",
   "id_obfuscated": ""
 },
 {
   "name": "Climate Strike - Coutances",
   "location": "Coutances, France",
   "url": "https://m.facebook.com/groups/2076309742416465?multi_permalinks=2121023574611748%2C2120446708002768&notif_t=group_activity&notif_id=1551348884814185&ref=m_notif",
   "latitude": "49.047808",
   "longitude": "-1.4452609",
   "event_type_name": "FridaysForFuture",
   "start_time": "",
   "start_dt": "",
   "capacity": "",
   "id": "",
   "start_day": "2019-03-15",
   "venue_zip": "",
   "is_official": "1",
   "id_obfuscated": ""
 },
 {
   "name": "Climate Strike - Dax",
   "location": "Dax, France",
   "url": "https://www.instagram.com/fridaysforfuture.dax",
   "latitude": "25.85059",
   "longitude": "-80.320987",
   "event_type_name": "FridaysForFuture",
   "start_time": "",
   "start_dt": "",
   "capacity": "",
   "id": "",
   "start_day": "2019-03-15",
   "venue_zip": "",
   "is_official": "1",
   "id_obfuscated": ""
 },
 {
   "name": "Climate Strike - Die",
   "location": "Die, France",
   "url": "https://www.facebook.com/events/479063765961809/",
   "latitude": "36.9283168",
   "longitude": "-94.3854286",
   "event_type_name": "FridaysForFuture",
   "start_time": "",
   "start_dt": "",
   "capacity": "",
   "id": "",
   "start_day": "2019-03-15",
   "venue_zip": "",
   "is_official": "1",
   "id_obfuscated": ""
 },
 {
   "name": "Climate Strike - Digne",
   "location": "Digne, France",
   "url": "https://www.facebook.com/groups/567914550285439/",
   "latitude": "44.0921929999999",
   "longitude": "6.235976",
   "event_type_name": "FridaysForFuture",
   "start_time": "",
   "start_dt": "",
   "capacity": "",
   "id": "",
   "start_day": "2019-03-15",
   "venue_zip": "",
   "is_official": "1",
   "id_obfuscated": ""
 },
 {
   "name": "Climate Strike - Dijon",
   "location": "Dijon, France",
   "url": "https://www.facebook.com/events/312377196136216/",
   "latitude": "47.322047",
   "longitude": "5.04148",
   "event_type_name": "FridaysForFuture",
   "start_time": "",
   "start_dt": "",
   "capacity": "",
   "id": "",
   "start_day": "2019-03-15",
   "venue_zip": "",
   "is_official": "1",
   "id_obfuscated": ""
 },
 {
   "name": "Climate Strike - Fontainebleau",
   "location": "Fontainebleau, France",
   "url": "www.instagram.com/fridaysforfuture_fontainebleau",
   "latitude": "25.816968",
   "longitude": "-80.1223555999999",
   "event_type_name": "FridaysForFuture",
   "start_time": "",
   "start_dt": "",
   "capacity": "",
   "id": "",
   "start_day": "2019-03-15",
   "venue_zip": "",
   "is_official": "1",
   "id_obfuscated": ""
 },
 {
   "name": "Climate Strike - Gaillon",
   "location": "Gaillon, France",
   "url": "https://www.instagram.com/p/BueYTkuFTGa/?utm_source=ig_share_sheet&igshid=wu2h05xubd7k",
   "latitude": "49.160734",
   "longitude": "1.33341",
   "event_type_name": "FridaysForFuture",
   "start_time": "",
   "start_dt": "",
   "capacity": "",
   "id": "",
   "start_day": "2019-03-15",
   "venue_zip": "",
   "is_official": "1",
   "id_obfuscated": ""
 },
 {
   "name": "Climate Strike - Gémenos",
   "location": "Gémenos, France",
   "url": "https://discord.gg/J8NtZx3",
   "latitude": "43.295388",
   "longitude": "5.628112",
   "event_type_name": "FridaysForFuture",
   "start_time": "",
   "start_dt": "",
   "capacity": "",
   "id": "",
   "start_day": "2019-03-15",
   "venue_zip": "",
   "is_official": "1",
   "id_obfuscated": ""
 },
 {
   "name": "Climate Strike - Genève",
   "location": "Genève, France",
   "url": "https://www.facebook.com/events/818336145174162/",
   "latitude": "46.2043907",
   "longitude": "6.1431577",
   "event_type_name": "FridaysForFuture",
   "start_time": "",
   "start_dt": "",
   "capacity": "",
   "id": "",
   "start_day": "2019-03-15",
   "venue_zip": "",
   "is_official": "1",
   "id_obfuscated": ""
 },
 {
   "name": "Climate Strike - Grenoble",
   "location": "Grenoble, France",
   "url": "https://www.facebook.com/events/579441929186082/",
   "latitude": "45.188529",
   "longitude": "5.724524",
   "event_type_name": "FridaysForFuture",
   "start_time": "",
   "start_dt": "",
   "capacity": "",
   "id": "",
   "start_day": "2019-03-15",
   "venue_zip": "",
   "is_official": "1",
   "id_obfuscated": ""
 },
 {
   "name": "Climate Strike - La Roche-Sur-Yon",
   "location": "La Roche-Sur-Yon, France",
   "url": "https://www.facebook.com/events/254101208846876/",
   "latitude": "46.670511",
   "longitude": "-1.426442",
   "event_type_name": "FridaysForFuture",
   "start_time": "",
   "start_dt": "",
   "capacity": "",
   "id": "",
   "start_day": "2019-03-15",
   "venue_zip": "",
   "is_official": "1",
   "id_obfuscated": ""
 },
 {
   "name": "Climate Strike - La Rochelle",
   "location": "La Rochelle, France",
   "url": "https://www.facebook.com/events/942674859453847/",
   "latitude": "46.160329",
   "longitude": "-1.151139",
   "event_type_name": "FridaysForFuture",
   "start_time": "",
   "start_dt": "",
   "capacity": "",
   "id": "",
   "start_day": "2019-03-15",
   "venue_zip": "",
   "is_official": "1",
   "id_obfuscated": ""
 },
 {
   "name": "Climate Strike - Lambersart",
   "location": "Lambersart, France",
   "url": "https://www.facebook.com/groups/2251083028513259?view=permalink&id=2251176508503911",
   "latitude": "50.652468",
   "longitude": "3.026676",
   "event_type_name": "FridaysForFuture",
   "start_time": "",
   "start_dt": "",
   "capacity": "",
   "id": "",
   "start_day": "2019-03-15",
   "venue_zip": "",
   "is_official": "1",
   "id_obfuscated": ""
 },
 {
   "name": "Climate Strike - Laval",
   "location": "Laval, France",
   "url": "https://www.facebook.com/events/327386144570611/",
   "latitude": "45.6066487",
   "longitude": "-73.712409",
   "event_type_name": "FridaysForFuture",
   "start_time": "",
   "start_dt": "",
   "capacity": "",
   "id": "",
   "start_day": "2019-03-15",
   "venue_zip": "",
   "is_official": "1",
   "id_obfuscated": ""
 },
 {
   "name": "Climate Strike - Le Havre",
   "location": "Le Havre, France",
   "url": "https://www.facebook.com/events/238437640396195/",
   "latitude": "49.49437",
   "longitude": "0.107929",
   "event_type_name": "FridaysForFuture",
   "start_time": "",
   "start_dt": "",
   "capacity": "",
   "id": "",
   "start_day": "2019-03-15",
   "venue_zip": "",
   "is_official": "1",
   "id_obfuscated": ""
 },
 {
   "name": "Climate Strike - Le Mans",
   "location": "Le Mans, France",
   "url": "https://www.facebook.com/events/406124146811038/",
   "latitude": "48.00611",
   "longitude": "0.199556",
   "event_type_name": "FridaysForFuture",
   "start_time": "",
   "start_dt": "",
   "capacity": "",
   "id": "",
   "start_day": "2019-03-15",
   "venue_zip": "",
   "is_official": "1",
   "id_obfuscated": ""
 },
 {
   "name": "Climate Strike - Le Puy-En-Velay",
   "location": "Le Puy-En-Velay, France",
   "url": "https://www.facebook.com/ReL43/",
   "latitude": "45.042768",
   "longitude": "3.882936",
   "event_type_name": "FridaysForFuture",
   "start_time": "",
   "start_dt": "",
   "capacity": "",
   "id": "",
   "start_day": "2019-03-15",
   "venue_zip": "",
   "is_official": "1",
   "id_obfuscated": ""
 },
 {
   "name": "Climate Strike - Lille",
   "location": "Lille, France",
   "url": "https://www.facebook.com/events/360404641221765/",
   "latitude": "50.62925",
   "longitude": "3.057256",
   "event_type_name": "FridaysForFuture",
   "start_time": "",
   "start_dt": "",
   "capacity": "",
   "id": "",
   "start_day": "2019-03-15",
   "venue_zip": "",
   "is_official": "1",
   "id_obfuscated": ""
 },
 {
   "name": "Climate Strike - Limoges",
   "location": "Limoges, France",
   "url": "https://www.facebook.com/events/376648896466825/?ti=cl",
   "latitude": "45.833619",
   "longitude": "1.261105",
   "event_type_name": "FridaysForFuture",
   "start_time": "",
   "start_dt": "",
   "capacity": "",
   "id": "",
   "start_day": "2019-03-15",
   "venue_zip": "",
   "is_official": "1",
   "id_obfuscated": ""
 },
 {
   "name": "Climate Strike - Lorient",
   "location": "Lorient, France",
   "url": "https://www.facebook.com/events/1165143443664455/?ti=cl",
   "latitude": "47.7482524",
   "longitude": "-3.3702449",
   "event_type_name": "FridaysForFuture",
   "start_time": "",
   "start_dt": "",
   "capacity": "",
   "id": "",
   "start_day": "2019-03-15",
   "venue_zip": "",
   "is_official": "1",
   "id_obfuscated": ""
 },
 {
   "name": "Climate Strike - Lyon",
   "location": "Lyon, France",
   "url": "https://www.facebook.com/events/589907324807969/",
   "latitude": "45.764043",
   "longitude": "4.835659",
   "event_type_name": "FridaysForFuture",
   "start_time": "",
   "start_dt": "",
   "capacity": "",
   "id": "",
   "start_day": "2019-03-15",
   "venue_zip": "",
   "is_official": "1",
   "id_obfuscated": ""
 },
 {
   "name": "Climate Strike - Manosque",
   "location": "Manosque, France",
   "url": "https://instagram.com/fridays_for_future_manosque?utm_source=ig_profile_share&igshid=11lq8z267tv2w",
   "latitude": "43.835744",
   "longitude": "5.790916",
   "event_type_name": "FridaysForFuture",
   "start_time": "",
   "start_dt": "",
   "capacity": "",
   "id": "",
   "start_day": "2019-03-15",
   "venue_zip": "",
   "is_official": "1",
   "id_obfuscated": ""
 },
 {
   "name": "Climate Strike - Marseille",
   "location": "Marseille, France",
   "url": "https://www.facebook.com/events/1597553797041179/",
   "latitude": "43.296482",
   "longitude": "5.36978",
   "event_type_name": "FridaysForFuture",
   "start_time": "",
   "start_dt": "",
   "capacity": "",
   "id": "",
   "start_day": "2019-03-15",
   "venue_zip": "",
   "is_official": "1",
   "id_obfuscated": ""
 },
 {
   "name": "Climate Strike - Laval",
   "location": "Laval, France",
   "url": "https://www.instagram.com/lamayenneforclimate",
   "latitude": "45.6066487",
   "longitude": "-73.712409",
   "event_type_name": "FridaysForFuture",
   "start_time": "",
   "start_dt": "",
   "capacity": "",
   "id": "",
   "start_day": "2019-03-15",
   "venue_zip": "",
   "is_official": "1",
   "id_obfuscated": ""
 },
 {
   "name": "Climate Strike - Metz",
   "location": "Metz, France",
   "url": "https://www.facebook.com/events/302757917106009/",
   "latitude": "49.1193089",
   "longitude": "6.17571559999999",
   "event_type_name": "FridaysForFuture",
   "start_time": "",
   "start_dt": "",
   "capacity": "",
   "id": "",
   "start_day": "2019-03-15",
   "venue_zip": "",
   "is_official": "1",
   "id_obfuscated": ""
 },
 {
   "name": "Climate Strike - Miramas",
   "location": "Miramas, France",
   "url": "https://www.instagram.com/cocteauclimat/",
   "latitude": "43.588896",
   "longitude": "5.002136",
   "event_type_name": "FridaysForFuture",
   "start_time": "",
   "start_dt": "",
   "capacity": "",
   "id": "",
   "start_day": "2019-03-15",
   "venue_zip": "",
   "is_official": "1",
   "id_obfuscated": ""
 },
 {
   "name": "Climate Strike - Montpellier",
   "location": "Montpellier, France",
   "url": "https://www.facebook.com/youthforclimatempl/",
   "latitude": "43.610769",
   "longitude": "3.876716",
   "event_type_name": "FridaysForFuture",
   "start_time": "",
   "start_dt": "",
   "capacity": "",
   "id": "",
   "start_day": "2019-03-15",
   "venue_zip": "",
   "is_official": "1",
   "id_obfuscated": ""
 },
 {
   "name": "Climate Strike - Morlaix",
   "location": "Morlaix, France",
   "url": "https://www.facebook.com/groups/2430752177148627/",
   "latitude": "48.577613",
   "longitude": "-3.828228",
   "event_type_name": "FridaysForFuture",
   "start_time": "",
   "start_dt": "",
   "capacity": "",
   "id": "",
   "start_day": "2019-03-15",
   "venue_zip": "",
   "is_official": "1",
   "id_obfuscated": ""
 },
 {
   "name": "Climate Strike - Moûtiers",
   "location": "Moûtiers, France",
   "url": "https://www.facebook.com/events/814674895561090/",
   "latitude": "45.484615",
   "longitude": "6.529926",
   "event_type_name": "FridaysForFuture",
   "start_time": "",
   "start_dt": "",
   "capacity": "",
   "id": "",
   "start_day": "2019-03-15",
   "venue_zip": "",
   "is_official": "1",
   "id_obfuscated": ""
 },

 
 {
   "name": "Climate Strike - Nancy",
   "location": "Nancy, France",
   "url": "https://www.facebook.com/events/1247754312048442/",
   "latitude": "43.4802611",
   "longitude": "-88.8111565",
   "event_type_name": "FridaysForFuture",
   "start_time": "",
   "start_dt": "",
   "capacity": "",
   "id": "",
   "start_day": "2019-03-15",
   "venue_zip": "",
   "is_official": "1",
   "id_obfuscated": ""
 },
 {
   "name": "Climate Strike - Nantes",
   "location": "Nantes, France",
   "url": "https://www.facebook.com/events/2211185119133814/",
   "latitude": "47.218371",
   "longitude": "-1.553621",
   "event_type_name": "FridaysForFuture",
   "start_time": "",
   "start_dt": "",
   "capacity": "",
   "id": "",
   "start_day": "2019-03-15",
   "venue_zip": "",
   "is_official": "1",
   "id_obfuscated": ""
 },
 {
   "name": "Climate Strike - Nantes",
   "location": "Nantes, France",
   "url": "https://www.facebook.com/events/2211185119133814/",
   "latitude": "47.218371",
   "longitude": "-1.553621",
   "event_type_name": "FridaysForFuture",
   "start_time": "",
   "start_dt": "",
   "capacity": "",
   "id": "",
   "start_day": "2019-03-15",
   "venue_zip": "",
   "is_official": "1",
   "id_obfuscated": ""
 },
 {
   "name": "Climate Strike - Nice",
   "location": "Nice, France",
   "url": "https://www.facebook.com/events/522920598230034/",
   "latitude": "43.7101728",
   "longitude": "7.2619532",
   "event_type_name": "FridaysForFuture",
   "start_time": "",
   "start_dt": "",
   "capacity": "",
   "id": "",
   "start_day": "2019-03-15",
   "venue_zip": "",
   "is_official": "1",
   "id_obfuscated": ""
 },
 {
   "name": "Climate Strike - Nîmes",
   "location": "Nîmes, France",
   "url": "https://www.facebook.com/events/247909135981379/",
   "latitude": "43.836699",
   "longitude": "4.360054",
   "event_type_name": "FridaysForFuture",
   "start_time": "",
   "start_dt": "",
   "capacity": "",
   "id": "",
   "start_day": "2019-03-15",
   "venue_zip": "",
   "is_official": "",
   "id_obfuscated": ""
 },
 {
   "name": "Climate Strike - Orléans",
   "location": "Orléans, France",
   "url": "https://www.facebook.com/events/252199662346408/",
   "latitude": "47.902964",
   "longitude": "1.909251",
   "event_type_name": "FridaysForFuture",
   "start_time": "",
   "start_dt": "",
   "capacity": "",
   "id": "",
   "start_day": "2019-03-15",
   "venue_zip": "",
   "is_official": "",
   "id_obfuscated": ""
 },
 {
   "name": "Climate Strike - Paris",
   "location": "Paris, France",
   "url": "https://www.facebook.com/events/821812371551265/",
   "latitude": "48.856614",
   "longitude": "2.3522219",
   "event_type_name": "FridaysForFuture",
   "start_time": "",
   "start_dt": "",
   "capacity": "",
   "id": "",
   "start_day": "2019-03-15",
   "venue_zip": "",
   "is_official": "",
   "id_obfuscated": ""
 },
 {
   "name": "Climate Strike - Pau",
   "location": "Pau, France",
   "url": "https://www.facebook.com/events/1145890468913734/",
   "latitude": "43.2951",
   "longitude": "-0.370797",
   "event_type_name": "FridaysForFuture",
   "start_time": "",
   "start_dt": "",
   "capacity": "",
   "id": "",
   "start_day": "2019-03-15",
   "venue_zip": "",
   "is_official": "",
   "id_obfuscated": ""
 },
 {
   "name": "Climate Strike - Bayonne",
   "location": "Bayonne, France",
   "url": "https://www.instagram.com/fridaysforfuture.paysbasque/",
   "latitude": "40.6687141",
   "longitude": "-74.1143091",
   "event_type_name": "FridaysForFuture",
   "start_time": "",
   "start_dt": "",
   "capacity": "",
   "id": "",
   "start_day": "2019-03-15",
   "venue_zip": "",
   "is_official": "",
   "id_obfuscated": ""
 },
 {
   "name": "Climate Strike - Perpignan",
   "location": "Perpignan, France",
   "url": "https://www.facebook.com/events/2212849945441070/",
   "latitude": "42.6886591",
   "longitude": "2.8948332",
   "event_type_name": "FridaysForFuture",
   "start_time": "",
   "start_dt": "",
   "capacity": "",
   "id": "",
   "start_day": "2019-03-15",
   "venue_zip": "",
   "is_official": "",
   "id_obfuscated": ""
 },
 {
   "name": "Climate Strike - Poitiers",
   "location": "Poitiers, France",
   "url": "https://www.facebook.com/events/301146500600808/",
   "latitude": "46.580224",
   "longitude": "0.340375",
   "event_type_name": "FridaysForFuture",
   "start_time": "",
   "start_dt": "",
   "capacity": "",
   "id": "",
   "start_day": "2019-03-15",
   "venue_zip": "",
   "is_official": "",
   "id_obfuscated": ""
 },
 {
   "name": "Climate Strike - Pont L Abbé",
   "location": "Pont L Abbé, France",
   "url": "https://www.instagram.com/greve_climat_laennec/",
   "latitude": "47.866915",
   "longitude": "-4.22229799999999",
   "event_type_name": "FridaysForFuture",
   "start_time": "",
   "start_dt": "",
   "capacity": "",
   "id": "",
   "start_day": "2019-03-15",
   "venue_zip": "",
   "is_official": "",
   "id_obfuscated": ""
 },
 {
   "name": "Climate Strike - Pontivy",
   "location": "Pontivy, France",
   "url": "https://www.instagram.com/youthforclimateptvy/",
   "latitude": "48.066152",
   "longitude": "-2.967056",
   "event_type_name": "FridaysForFuture",
   "start_time": "",
   "start_dt": "",
   "capacity": "",
   "id": "",
   "start_day": "2019-03-15",
   "venue_zip": "",
   "is_official": "",
   "id_obfuscated": ""
 },
 {
   "name": "Climate Strike - Quimper",
   "location": "Quimper, France",
   "url": "https://www.instagram.com/quimperforfuture/",
   "latitude": "47.997542",
   "longitude": "-4.097899",
   "event_type_name": "FridaysForFuture",
   "start_time": "",
   "start_dt": "",
   "capacity": "",
   "id": "",
   "start_day": "2019-03-15",
   "venue_zip": "",
   "is_official": "",
   "id_obfuscated": ""
 },
 {
   "name": "Climate Strike - Rabat",
   "location": "Rabat, France",
   "url": "https://instagram.com/cdi_saint_ex_rabat?utm_source=ig_profile_share&igshid=igxs48iubh6a",
   "latitude": "33.9715904",
   "longitude": "-6.8498129",
   "event_type_name": "FridaysForFuture",
   "start_time": "",
   "start_dt": "",
   "capacity": "",
   "id": "",
   "start_day": "2019-03-15",
   "venue_zip": "",
   "is_official": "",
   "id_obfuscated": ""
 },
 {
   "name": "Climate Strike - Redon",
   "location": "Redon, France",
   "url": "https://instagram.com/youthforclimateredon?utm_source=ig_profile_share&igshid=kkvnygyqqov2",
   "latitude": "47.650742",
   "longitude": "-2.083938",
   "event_type_name": "FridaysForFuture",
   "start_time": "",
   "start_dt": "",
   "capacity": "",
   "id": "",
   "start_day": "2019-03-15",
   "venue_zip": "",
   "is_official": "",
   "id_obfuscated": ""
 },{
   "name": "Climate Strike - Rennes",
   "location": "Rennes, France",
   "url": "https://www.facebook.com/events/2335697356662740/",
   "latitude": "48.117266",
   "longitude": "-1.6777926",
   "event_type_name": "FridaysForFuture",
   "start_time": "",
   "start_dt": "",
   "capacity": "",
   "id": "",
   "start_day": "2019-03-15",
   "venue_zip": "",
   "is_official": "",
   "id_obfuscated": ""
 },
 {
   "name": "Climate Strike - Rodez",
   "location": "Rodez, France",
   "url": "https://www.facebook.com/events/619315108522569/",
   "latitude": "44.349389",
   "longitude": "2.575986",
   "event_type_name": "FridaysForFuture",
   "start_time": "",
   "start_dt": "",
   "capacity": "",
   "id": "",
   "start_day": "2019-03-15",
   "venue_zip": "",
   "is_official": "",
   "id_obfuscated": ""
 },
 {
   "name": "Climate Strike - Rouen",
   "location": "Rouen, France",
   "url": "https://www.facebook.com/events/381075579351466/",
   "latitude": "49.4432319999999",
   "longitude": "1.099971",
   "event_type_name": "FridaysForFuture",
   "start_time": "",
   "start_dt": "",
   "capacity": "",
   "id": "",
   "start_day": "2019-03-15",
   "venue_zip": "",
   "is_official": "",
   "id_obfuscated": ""
 },
 
 
 {
   "name": "Climate Strike - Saint-Brieuc",
   "location": "Saint-Brieuc, France",
   "url": "https://instagram.com/fridayforthefuture.saintbrieuc?utm_source=ig_profile_share&igshid=18hgpa6f5ecog",
   "latitude": "48.51418",
   "longitude": "-2.765835",
   "event_type_name": "FridaysForFuture",
   "start_time": "",
   "start_dt": "",
   "capacity": "",
   "id": "",
   "start_day": "2019-03-15",
   "venue_zip": "",
   "is_official": "",
   "id_obfuscated": ""
 },
 {
   "name": "Climate Strike - Saint Chély D'Apcher",
   "location": "Saint Chély D'Apcher, France",
   "url": "https://www.facebook.com/events/531133204062316/",
   "latitude": "44.8011363",
   "longitude": "3.2757824",
   "event_type_name": "FridaysForFuture",
   "start_time": "",
   "start_dt": "",
   "capacity": "",
   "id": "",
   "start_day": "2019-03-15",
   "venue_zip": "",
   "is_official": "",
   "id_obfuscated": ""
 },
 {
   "name": "Climate Strike - St-Etienne",
   "location": "St-Etienne, France",
   "url": "https://www.facebook.com/events/2918255378188321",
   "latitude": "45.439695",
   "longitude": "4.3871779",
   "event_type_name": "FridaysForFuture",
   "start_time": "",
   "start_dt": "",
   "capacity": "",
   "id": "",
   "start_day": "2019-03-15",
   "venue_zip": "",
   "is_official": "",
   "id_obfuscated": ""
 },
 {
   "name": "Climate Strike - Saint Martin D'Hères",
   "location": "Saint Martin D'Hères, France",
   "url": "https://discord.gg/mVDBRqe",
   "latitude": "45.1837",
   "longitude": "5.755269999999996",
   "event_type_name": "FridaysForFuture",
   "start_time": "",
   "start_dt": "",
   "capacity": "",
   "id": "",
   "start_day": "2019-03-15",
   "venue_zip": "",
   "is_official": "",
   "id_obfuscated": ""
 },
 {
   "name": "Climate Strike - Saint-Nazaire",
   "location": "Saint-Nazaire, France",
   "url": "https://www.facebook.com/events/387012578781150/",
   "latitude": "47.2734979",
   "longitude": "-2.213848",
   "event_type_name": "FridaysForFuture",
   "start_time": "",
   "start_dt": "",
   "capacity": "",
   "id": "",
   "start_day": "2019-03-15",
   "venue_zip": "",
   "is_official": "",
   "id_obfuscated": ""
 },
 {
   "name": "Climate Strike - Saint-Quentin",
   "location": "Saint-Quentin, France",
   "url": "https://www.facebook.com/events/391560618070838/",
   "latitude": "49.847066",
   "longitude": "3.2874",
   "event_type_name": "FridaysForFuture",
   "start_time": "",
   "start_dt": "",
   "capacity": "",
   "id": "",
   "start_day": "2019-03-15",
   "venue_zip": "",
   "is_official": "",
   "id_obfuscated": ""
 },
 {
   "name": "Climate Strike - Soissons",
   "location": "Soissons, France",
   "url": "https://www.facebook.com/events/310941619568557/",
   "latitude": "49.376636",
   "longitude": "3.32342",
   "event_type_name": "FridaysForFuture",
   "start_time": "",
   "start_dt": "",
   "capacity": "",
   "id": "",
   "start_day": "2019-03-15",
   "venue_zip": "",
   "is_official": "",
   "id_obfuscated": ""
 },
 {
   "name": "Climate Strike - Sophia Antipolis",
   "location": "Sophia Antipolis, France",
   "url": "https://www.instagram.com/YFCSophia",
   "latitude": "43.6163539",
   "longitude": "7.0552218",
   "event_type_name": "FridaysForFuture",
   "start_time": "",
   "start_dt": "",
   "capacity": "",
   "id": "",
   "start_day": "2019-03-15",
   "venue_zip": "",
   "is_official": "",
   "id_obfuscated": ""
 },
 {
   "name": "Climate Strike - Strasbourg",
   "location": "Strasbourg, France",
   "url": "https://www.facebook.com/events/2269437749994759/",
   "latitude": "48.5734053",
   "longitude": "7.75211129999999",
   "event_type_name": "FridaysForFuture",
   "start_time": "",
   "start_dt": "",
   "capacity": "",
   "id": "",
   "start_day": "2019-03-15",
   "venue_zip": "",
   "is_official": "",
   "id_obfuscated": ""
 },
 {
   "name": "Climate Strike - Tarbes",
   "location": "Tarbes, France",
   "url": "https://www.facebook.com/events/403221720488705/",
   "latitude": "43.232951",
   "longitude": "0.078082",
   "event_type_name": "FridaysForFuture",
   "start_time": "",
   "start_dt": "",
   "capacity": "",
   "id": "",
   "start_day": "2019-03-15",
   "venue_zip": "",
   "is_official": "",
   "id_obfuscated": ""
 },
 {
   "name": "Climate Strike - Toulon",
   "location": "Toulon, France",
   "url": "https://www.facebook.com/events/240325130242951/",
   "latitude": "43.124228",
   "longitude": "5.928",
   "event_type_name": "FridaysForFuture",
   "start_time": "",
   "start_dt": "",
   "capacity": "",
   "id": "",
   "start_day": "2019-03-15",
   "venue_zip": "",
   "is_official": "",
   "id_obfuscated": ""
 },
 {
   "name": "Climate Strike - Toulouse",
   "location": "Toulouse, France",
   "url": "https://www.facebook.com/events/218445965661229/",
   "latitude": "43.604652",
   "longitude": "1.444209",
   "event_type_name": "FridaysForFuture",
   "start_time": "",
   "start_dt": "",
   "capacity": "",
   "id": "",
   "start_day": "2019-03-15",
   "venue_zip": "",
   "is_official": "",
   "id_obfuscated": ""
 },
 {
   "name": "Climate Strike - Tours",
   "location": "Tours, France",
   "url": "https://www.facebook.com/events/2293289050940437/",
   "latitude": "47.394144",
   "longitude": "0.68484",
   "event_type_name": "FridaysForFuture",
   "start_time": "",
   "start_dt": "",
   "capacity": "",
   "id": "",
   "start_day": "2019-03-15",
   "venue_zip": "",
   "is_official": "",
   "id_obfuscated": ""
 },
 {
   "name": "Climate Strike - Troyes",
   "location": "Troyes, France",
   "url": "https://www.facebook.com/events/2019633084818724/",
   "latitude": "48.2973451",
   "longitude": "4.0744009",
   "event_type_name": "FridaysForFuture",
   "start_time": "",
   "start_dt": "",
   "capacity": "",
   "id": "",
   "start_day": "2019-03-15",
   "venue_zip": "",
   "is_official": "",
   "id_obfuscated": ""
 },
 {
   "name": "Climate Strike - Vaison-La-Romaine",
   "location": "Vaison-La-Romaine, France",
   "url": "https://www.facebook.com/Gr%C3%A8ve-pour-le-climat-Vaison-566163323890459/",
   "latitude": "44.240968",
   "longitude": "5.07519799999999",
   "event_type_name": "FridaysForFuture",
   "start_time": "",
   "start_dt": "",
   "capacity": "",
   "id": "",
   "start_day": "2019-03-15",
   "venue_zip": "",
   "is_official": "",
   "id_obfuscated": ""
 },
 {
   "name": "Climate Strike - Valence",
   "location": "Valence, France",
   "url": "https://instagram.com/arret_sur_image_cv",
   "latitude": "47.9237775",
   "longitude": "-122.2547372",
   "event_type_name": "FridaysForFuture",
   "start_time": "",
   "start_dt": "",
   "capacity": "",
   "id": "",
   "start_day": "2019-03-15",
   "venue_zip": "",
   "is_official": "",
   "id_obfuscated": ""
 },
 {
   "name": "Climate Strike - Valence",
   "location": "Valence, France",
   "url": "https://www.instagram.com/greve_climat_valence",
   "latitude": "47.9237775",
   "longitude": "-122.2547372",
   "event_type_name": "FridaysForFuture",
   "start_time": "",
   "start_dt": "",
   "capacity": "",
   "id": "",
   "start_day": "2019-03-15",
   "venue_zip": "",
   "is_official": "",
   "id_obfuscated": ""
 },