window.EVENT_DATA ={
   "results":[


/*Grève mondiale du 15/03 */

 {
   "name": "Marche pour le climat Saintes",
   "location": "Saintes, France",
   "url": "https://www.facebook.com/events/350484542398392/",
   "latitude": "45.742",
   "longitude": "-0.629933",
   "event_type_name": "FridaysForFuture",
   "start_time": "",
   "start_dt": "2019-16-03",
   "capacity": "",
   "id": "",
   "start_day": "",
   "venue_zip": "",
   "is_official": "1",
   "id_obfuscated": "gpg5bt"
 },


 /*Recurring events (FFF°*/


 {
   "name": "Fridays For Future by Post plastic generation",
   "location": "Rotterdam, Netherlands",
   "url": "https://www.facebook.com/events/350484542398392/",
   "latitude": "51.9244201",
   "longitude": "4.4777326",
   "event_type_name": "FridaysForFuture",
   "start_time": "",
   "start_dt": "2019-11-01",
   "capacity": "",
   "id": "",
   "start_day": "",
   "venue_zip": "",
   "is_official": "1",
   "id_obfuscated": "gpg5bt"
 },
 {
   "name": "Fridaysforfuture Würzburg",
   "location": "Würzburg, Germany",
   "url": "https://www.instagram.com/fridaysforfuture_wuerzburg/",
   "latitude": "49.7913043999999",
   "longitude": "9.9533548",
   "event_type_name": "FridaysForFuture",
   "start_time": "",
   "start_dt": "2019-01-18",  
   "capacity": "",
   "id": "",
   "start_day": "",
   "venue_zip": "",
   "is_official": "1",
   "id_obfuscated": "gpg5bt"
 },
 {
   "name": "Fridays For Furute Mainz climateStrike",
   "location": "Mainz, Germany",
   "url": "https://www.facebook.com/events/790736611276900/",
   "latitude": "49.9928617",
   "longitude": "8.2472526",
   "event_type_name": "FridaysForFuture",
   "start_time": "",
   "start_dt": "2019-01-18",
   "capacity": "",
   "id": "",
   "start_day": "",
   "venue_zip": "",
   "is_official": "1",
   "id_obfuscated": "gpg5bt"
 },
 {
   "name": "Fridays for future Wuerzburg",
   "location": "Wuerzburg, Germany",
   "url": "https://www.facebook.com/events/565184143947409/?ti=as",
   "latitude": "49.7913043999999",
   "longitude": "9.9533548",
   "event_type_name": "FridaysForFuture",
   "start_time": "",
   "start_dt": "2019-01-18",
   "capacity": "",
   "id": "",
   "start_day": "",
   "venue_zip": "",
   "is_official": "1",
   "id_obfuscated": "gpg5bt"
 },
 {
   "name": "Klimatstrejk- FridaysForFuture",
   "location": "Kristianstad, Sweden",
   "url": "https://www.facebook.com/events/1128790853968495/",
   "latitude": "56.0293936",
   "longitude": "14.1566779",
   "event_type_name": "FridaysForFuture",
   "start_time": "",
   "start_dt": "2019-01-18",
   "capacity": "",
   "id": "",
   "start_day": "",
   "venue_zip": "",
   "is_official": "1",
   "id_obfuscated": "gpg5bt"
 },
 {
   "name": "Hannover",
   "location": "Hannover, Germany",
   "url": "http://www.soulstyle.de",
   "latitude": "52.3758916",
   "longitude": "9.7320104",
   "event_type_name": "FridaysForFuture",
   "start_time": "",
   "start_dt": "2019-01-18",
   "capacity": "",
   "id": "",
   "start_day": "",
   "venue_zip": "",
   "is_official": "1",
   "id_obfuscated": "gpg5bt"
 },

 {
   "name": "FFF Nyköping",
   "location": "Sverige, Nyköping",
   "url": "https://www.facebook.com/groups/929294497203110/",
   "latitude": "58.7528438999999",
   "longitude": "17.0091593",
   "event_type_name": "FridaysForFuture",
   "start_time": "",
   "start_dt": "",
   "capacity": "",
   "id": "",
   "start_day": "",
   "venue_zip": "",
   "is_official": "1",
   "id_obfuscated": "gpg5bt"
 },
 {
   "name": "FFF Katrineholm",
   "location": "Sverige, Katrineholm",
   "url": "https://www.facebook.com/klimatgruppen",
   "latitude": "58.9955510999999",
   "longitude": "16.2054756",
   "event_type_name": "FridaysForFuture",
   "start_time": "",
   "start_dt": "",
   "capacity": "",
   "id": "",
   "start_day": "",
   "venue_zip": "",
   "is_official": "1",
   "id_obfuscated": "gpg5bt"
 },
 {
   "name": "FFF Trollhättan",
   "location": "Sverige, Trollhättan",
   "url": "https://www.facebook.com/groups/929294497203110/",
   "latitude": "58.2834893999999",
   "longitude": "12.2858206",
   "event_type_name": "FridaysForFuture",
   "start_time": "",
   "start_dt": "",
   "capacity": "",
   "id": "",
   "start_day": "",
   "venue_zip": "",
   "is_official": "1",
   "id_obfuscated": "gpg5bt"
 },
 {
   "name": "FFF Södertälje",
   "location": "Sverige, Södertälje",
   "url": "https://www.facebook.com/events/1931885543563414/",
   "latitude": "59.195363",
   "longitude": "17.625689",
   "event_type_name": "FridaysForFuture",
   "start_time": "",
   "start_dt": "",
   "capacity": "",
   "id": "",
   "start_day": "",
   "venue_zip": "",
   "is_official": "1",
   "id_obfuscated": "gpg5bt"
 },
 {
   "name": "FFF Lund",
   "location": "Sverige, Lund",
   "url": "https://www.facebook.com/events/509178649560555/",
   "latitude": "55.7046601",
   "longitude": "13.1910073",
   "event_type_name": "FridaysForFuture",
   "start_time": "",
   "start_dt": "",
   "capacity": "",
   "id": "",
   "start_day": "",
   "venue_zip": "",
   "is_official": "1",
   "id_obfuscated": "gpg5bt"
 },
 {
   "name": "FFF Järfälla",
   "location": "Sverige, Järfälla",
   "url": "https://www.facebook.com/events/1983461495052359/",
   "latitude": "59.4252654",
   "longitude": "17.8238965",
   "event_type_name": "FridaysForFuture",
   "start_time": "",
   "start_dt": "",
   "capacity": "",
   "id": "",
   "start_day": "",
   "venue_zip": "",
   "is_official": "1",
   "id_obfuscated": "gpg5bt"
 },
 {
   "name": "FFF Nora",
   "location": "Sverige, Nora",
   "url": "https://www.facebook.com/events/190261361812800/?notif_t=plan_user_invited&notif_id=1542399199611169",
   "latitude": "59.5135813",
   "longitude": "14.9846152",
   "event_type_name": "FridaysForFuture",
   "start_time": "",
   "start_dt": "",
   "capacity": "",
   "id": "",
   "start_day": "",
   "venue_zip": "",
   "is_official": "1",
   "id_obfuscated": "gpg5bt"
 },
 {
   "name": "FFF Norrköping ",
   "location": "Sverige, Norrköping ",
   "url": "https://www.facebook.com/events/270457556881021/?ti=icl",
   "latitude": "58.587745",
   "longitude": "16.192421",
   "event_type_name": "FridaysForFuture",
   "start_time": "",
   "start_dt": "",
   "capacity": "",
   "id": "",
   "start_day": "",
   "venue_zip": "",
   "is_official": "1",
   "id_obfuscated": "gpg5bt"
 },
 {
   "name": "FFF Boden",
   "location": "Sverige, Boden",
   "url": "https://www.facebook.com/events/2367940176569238",
   "latitude": "65.8222246",
   "longitude": "21.5902024",
   "event_type_name": "FridaysForFuture",
   "start_time": "",
   "start_dt": "",
   "capacity": "",
   "id": "",
   "start_day": "",
   "venue_zip": "",
   "is_official": "1",
   "id_obfuscated": "gpg5bt"
 },
 {
   "name": "FFF Söderhamn",
   "location": "Sverige, Söderhamn",
   "url": "https://www.facebook.com/groups/929294497203110/",
   "latitude": "61.3055762",
   "longitude": "17.0628102",
   "event_type_name": "FridaysForFuture",
   "start_time": "",
   "start_dt": "",
   "capacity": "",
   "id": "",
   "start_day": "",
   "venue_zip": "",
   "is_official": "1",
   "id_obfuscated": "gpg5bt"
 },
 {
   "name": "FFF Jönköping",
   "location": "Sverige, Jönköping",
   "url": "https://www.facebook.com/groups/929294497203110/",
   "latitude": "57.7826137",
   "longitude": "14.1617876",
   "event_type_name": "FridaysForFuture",
   "start_time": "",
   "start_dt": "",
   "capacity": "",
   "id": "",
   "start_day": "",
   "venue_zip": "",
   "is_official": "1",
   "id_obfuscated": "gpg5bt"
 },
 {
   "name": "FFF Tanumshede",
   "location": "Sverige, Tanumshede",
   "url": "https://www.facebook.com/events/559070557873601/",
   "latitude": "58.7239941",
   "longitude": "11.3252391",
   "event_type_name": "FridaysForFuture",
   "start_time": "",
   "start_dt": "",
   "capacity": "",
   "id": "",
   "start_day": "",
   "venue_zip": "",
   "is_official": "1",
   "id_obfuscated": "gpg5bt"
 },
 {
   "name": "FFF Älmhult",
   "location": "Sverige, Älmhult",
   "url": "https://m.facebook.com/events/715531572164399?_rdr",
   "latitude": "56.5524461",
   "longitude": "14.1374047",
   "event_type_name": "FridaysForFuture",
   "start_time": "",
   "start_dt": "",
   "capacity": "",
   "id": "",
   "start_day": "",
   "venue_zip": "",
   "is_official": "1",
   "id_obfuscated": "gpg5bt"
 },
 {
   "name": "FFF Umeå",
   "location": "Sverige, Umeå",
   "url": "https://www.facebook.com/events/196651434622236/",
   "latitude": "63.8258471",
   "longitude": "20.2630354",
   "event_type_name": "FridaysForFuture",
   "start_time": "",
   "start_dt": "",
   "capacity": "",
   "id": "",
   "start_day": "",
   "venue_zip": "",
   "is_official": "1",
   "id_obfuscated": "gpg5bt"
 },
 {
   "name": "FFF Falköping",
   "location": "Sverige, Falköping",
   "url": "https://www.facebook.com/events/370098203734518/",
   "latitude": "58.1750289999999",
   "longitude": "13.553217",
   "event_type_name": "FridaysForFuture",
   "start_time": "",
   "start_dt": "",
   "capacity": "",
   "id": "",
   "start_day": "",
   "venue_zip": "",
   "is_official": "1",
   "id_obfuscated": "gpg5bt"
 },
 {
   "name": "FFF Manchester",
   "location": "UK, Manchester",
   "url": "https://www.facebook.com/groups/929294497203110/",
   "latitude": "53.4807593",
   "longitude": "-2.2426305",
   "event_type_name": "FridaysForFuture",
   "start_time": "",
   "start_dt": "",
   "capacity": "",
   "id": "",
   "start_day": "",
   "venue_zip": "",
   "is_official": "1",
   "id_obfuscated": "gpg5bt"
 },
 {
   "name": "FFF Munkedal",
   "location": "Sverige, Munkedal",
   "url": "https://www.facebook.com/events/2250730378479340/ ",
   "latitude": "58.4715050999999",
   "longitude": "11.6801923",
   "event_type_name": "FridaysForFuture",
   "start_time": "",
   "start_dt": "",
   "capacity": "",
   "id": "",
   "start_day": "",
   "venue_zip": "",
   "is_official": "1",
   "id_obfuscated": "gpg5bt"
 },
 {
   "name": "FFF Höganäs",
   "location": "Sverige, Höganäs",
   "url": "https://www.facebook.com/groups/929294497203110/",
   "latitude": "56.1996493",
   "longitude": "12.5487229",
   "event_type_name": "FridaysForFuture",
   "start_time": "",
   "start_dt": "",
   "capacity": "",
   "id": "",
   "start_day": "",
   "venue_zip": "",
   "is_official": "1",
   "id_obfuscated": "gpg5bt"
 },
 {
   "name": "FFF Kramfors",
   "location": "Sweden, Kramfors",
   "url": "https://m.facebook.com/groups/913133312408843",
   "latitude": "62.9284332",
   "longitude": "17.7862946",
   "event_type_name": "FridaysForFuture",
   "start_time": "",
   "start_dt": "",
   "capacity": "",
   "id": "",
   "start_day": "",
   "venue_zip": "",
   "is_official": "1",
   "id_obfuscated": "gpg5bt"
 },
 {
   "name": "FFF Mölndal",
   "location": "Sweden, Mölndal",
   "url": "https://www.facebook.com/groups/929294497203110/",
   "latitude": "57.65",
   "longitude": "12.0166669",
   "event_type_name": "FridaysForFuture",
   "start_time": "",
   "start_dt": "",
   "capacity": "",
   "id": "",
   "start_day": "",
   "venue_zip": "",
   "is_official": "1",
   "id_obfuscated": "gpg5bt"
 },
 {
   "name": "FFF Oxford",
   "location": "UK, Oxford",
   "url": "https://www.facebook.com/groups/929294497203110/",
   "latitude": "51.7504111",
   "longitude": "-1.2826071",
   "event_type_name": "FridaysForFuture",
   "start_time": "",
   "start_dt": "",
   "capacity": "",
   "id": "",
   "start_day": "",
   "venue_zip": "",
   "is_official": "1",
   "id_obfuscated": "gpg5bt"
 },
 {
   "name": "FFF Dublin",
   "location": "Ireland, Dublin",
   "url": "https://www.facebook.com/groups/264915914187950/",
   "latitude": "53.3498053",
   "longitude": "-6.2603097",
   "event_type_name": "FridaysForFuture",
   "start_time": "",
   "start_dt": "",
   "capacity": "",
   "id": "",
   "start_day": "",
   "venue_zip": "",
   "is_official": "1",
   "id_obfuscated": "gpg5bt"
 },
 {
   "name": "FFF Linköping",
   "location": "Sweden, Linköping",
   "url": "https://www.facebook.com/groups/245963729404817/",
   "latitude": "58.410807",
   "longitude": "15.6213728",
   "event_type_name": "FridaysForFuture",
   "start_time": "",
   "start_dt": "",
   "capacity": "",
   "id": "",
   "start_day": "",
   "venue_zip": "",
   "is_official": "1",
   "id_obfuscated": "gpg5bt"
 },
 {
   "name": "FFF Karlstad",
   "location": "Sweden, Karlstad",
   "url": "https://www.facebook.com/groups/465945337246071",
   "latitude": "59.4021806",
   "longitude": "13.5114978",
   "event_type_name": "FridaysForFuture",
   "start_time": "",
   "start_dt": "",
   "capacity": "",
   "id": "",
   "start_day": "",
   "venue_zip": "",
   "is_official": "1",
   "id_obfuscated": "gpg5bt"
 },
 {
   "name": "FFF Heldenplatz",
   "location": "Österreich, Heldenplatz",
   "url": "https://www.facebook.com/Fridays-for-Future-Vienna-985153355001489/",
   "latitude": "48.2063576",
   "longitude": "16.3631746",
   "event_type_name": "FridaysForFuture",
   "start_time": "",
   "start_dt": "",
   "capacity": "",
   "id": "",
   "start_day": "",
   "venue_zip": "",
   "is_official": "1",
   "id_obfuscated": "gpg5bt"
 },
 {
   "name": "FFF Montreal",
   "location": "Canada, Montreal",
   "url": "https://cop24climatestrike.com/event-map/",
   "latitude": "45.5016889",
   "longitude": "-73.567256",
   "event_type_name": "FridaysForFuture",
   "start_time": "",
   "start_dt": "",
   "capacity": "",
   "id": "",
   "start_day": "",
   "venue_zip": "",
   "is_official": "1",
   "id_obfuscated": "gpg5bt"
 },
 {
   "name": "FFF Düsseldorf",
   "location": "Germany, Düsseldorf",
   "url": "https://www.facebook.com/fridaysforfutureduesseldorf",
   "latitude": "51.2277411",
   "longitude": "6.7734556",
   "event_type_name": "FridaysForFuture",
   "start_time": "",
   "start_dt": "",
   "capacity": "",
   "id": "",
   "start_day": "",
   "venue_zip": "",
   "is_official": "1",
   "id_obfuscated": "gpg5bt"
 },
 {
   "name": "FFF Humboldt Arcata Plaza",
   "location": "United States, Humboldt Arcata plaza",
   "url": "https://www.facebook.com/groups/929294497203110/",
   "latitude": "40.8862955",
   "longitude": "-124.0906478",
   "event_type_name": "FridaysForFuture",
   "start_time": "",
   "start_dt": "",
   "capacity": "",
   "id": "",
   "start_day": "",
   "venue_zip": "",
   "is_official": "1",
   "id_obfuscated": "gpg5bt"
 },
 {
   "name": "FFF Truro",
   "location": "Canada, Truro",
   "url": "https://www.facebook.com/events/475519642976018/",
   "latitude": "45.3459066",
   "longitude": "-63.2859908",
   "event_type_name": "FridaysForFuture",
   "start_time": "",
   "start_dt": "",
   "capacity": "",
   "id": "",
   "start_day": "",
   "venue_zip": "",
   "is_official": "1",
   "id_obfuscated": "gpg5bt"
 },
 {
   "name": "FFF Adıyaman",
   "location": "Türkiye, Adıyaman",
   "url": "https://www.facebook.com/groups/929294497203110/",
   "latitude": "37.76365",
   "longitude": "38.2772592",
   "event_type_name": "FridaysForFuture",
   "start_time": "",
   "start_dt": "",
   "capacity": "",
   "id": "",
   "start_day": "",
   "venue_zip": "",
   "is_official": "1",
   "id_obfuscated": "gpg5bt"
 },
 {
   "name": "FFF Bugolobi",
   "location": "Uganda, Bugolobi",
   "url": "https://www.facebook.com/groups/929294497203110/",
   "latitude": "0.309722",
   "longitude": "32.6257655",
   "event_type_name": "FridaysForFuture",
   "start_time": "",
   "start_dt": "",
   "capacity": "",
   "id": "",
   "start_day": "",
   "venue_zip": "",
   "is_official": "1",
   "id_obfuscated": "gpg5bt"
 },
 {
   "name": "FFF Prage",
   "location": "czechia, Prage",
   "url": "http://www.climate-day.com",
   "latitude": "50.0755381",
   "longitude": "14.4378005",
   "event_type_name": "FridaysForFuture",
   "start_time": "",
   "start_dt": "",
   "capacity": "",
   "id": "",
   "start_day": "",
   "venue_zip": "",
   "is_official": "1",
   "id_obfuscated": "gpg5bt"
 },
 {
   "name": "FFF Stuttgart",
   "location": "Germany, Stuttgart",
   "url": "https://www.facebook.com/groups/929294497203110/",
   "latitude": "48.7758459",
   "longitude": "9.1829321",
   "event_type_name": "FridaysForFuture",
   "start_time": "",
   "start_dt": "",
   "capacity": "",
   "id": "",
   "start_day": "",
   "venue_zip": "",
   "is_official": "1",
   "id_obfuscated": "gpg5bt"
 },
 {
   "name": "FFF Osnabrück",
   "location": "Germany, Osnabrück",
   "url": "https://www.instagram.com/fridaysforfuture_os/?hl=de",
   "latitude": "52.2799112",
   "longitude": "8.0471788",
   "event_type_name": "FridaysForFuture",
   "start_time": "",
   "start_dt": "",
   "capacity": "",
   "id": "",
   "start_day": "",
   "venue_zip": "",
   "is_official": "1",
   "id_obfuscated": "gpg5bt"
 },
 {
   "name": "FFF Bollebygd",
   "location": "Sweden, BOLLEBYGD",
   "url": "https://www.facebook.com/events/373579246536117/",
   "latitude": "57.6689691",
   "longitude": "12.5701433",
   "event_type_name": "FridaysForFuture",
   "start_time": "",
   "start_dt": "",
   "capacity": "",
   "id": "",
   "start_day": "",
   "venue_zip": "",
   "is_official": "1",
   "id_obfuscated": "gpg5bt"
 },
 {
   "name": "FFF Lochaber High School",
   "location": "UK, Lochaber High School",
   "url": "https://www.facebook.com/groups/929294497203110/",
   "latitude": "56.8373419",
   "longitude": "-5.078086",
   "event_type_name": "FridaysForFuture",
   "start_time": "",
   "start_dt": "",
   "capacity": "",
   "id": "",
   "start_day": "",
   "venue_zip": "",
   "is_official": "1",
   "id_obfuscated": "gpg5bt"
 },
 {
   "name": "FFF Lafiabougou",
   "location": "Mali, Lafiabougou",
   "url": "https://m.facebook.com/Ensemble-pour-le-Climat-Bamako-1381176922016701/",
   "latitude": "12.6351525",
   "longitude": "-8.0437909",
   "event_type_name": "FridaysForFuture",
   "start_time": "",
   "start_dt": "",
   "capacity": "",
   "id": "",
   "start_day": "",
   "venue_zip": "",
   "is_official": "1",
   "id_obfuscated": "gpg5bt"
 },
 {
   "name": "FFF Arusha",
   "location": "Tanzania, Arusha",
   "url": "https://www.facebook.com/groups/929294497203110/",
   "latitude": "-3.3869254",
   "longitude": "36.6829927",
   "event_type_name": "FridaysForFuture",
   "start_time": "",
   "start_dt": "",
   "capacity": "",
   "id": "",
   "start_day": "",
   "venue_zip": "",
   "is_official": "1",
   "id_obfuscated": "gpg5bt"
 },
 {
   "name": "FFF Bad Segeberg",
   "location": "Deutschland, Bad Segeberg",
   "url": "https://www.facebook.com/groups/929294497203110/",
   "latitude": "53.9390528",
   "longitude": "10.3053652",
   "event_type_name": "FridaysForFuture",
   "start_time": "",
   "start_dt": "",
   "capacity": "",
   "id": "",
   "start_day": "",
   "venue_zip": "",
   "is_official": "1",
   "id_obfuscated": "gpg5bt"
 },
 {
   "name": "FFF Rotterdam",
   "location": "Netherlands, Rotterdam",
   "url": "https://www.facebook.com/events/350484542398392/",
   "latitude": "51.9244201",
   "longitude": "4.4777326",
   "event_type_name": "FridaysForFuture",
   "start_time": "",
   "start_dt": "",
   "capacity": "",
   "id": "",
   "start_day": "",
   "venue_zip": "",
   "is_official": "1",
   "id_obfuscated": "gpg5bt"
 },
 {
   "name": "FFF Härnösand",
   "location": "Sweden, Härnösand",
   "url": "https://www.facebook.com/groups/211651019774548/",
   "latitude": "62.6322698",
   "longitude": "17.9408714",
   "event_type_name": "FridaysForFuture",
   "start_time": "",
   "start_dt": "",
   "capacity": "",
   "id": "",
   "start_day": "",
   "venue_zip": "",
   "is_official": "1",
   "id_obfuscated": "gpg5bt"
 },
 {
   "name": "FFF Stockholm",
   "location": "Sweden , Stockholm",
   "url": "https://www.facebook.com/groups/929294497203110/",
   "latitude": "59.3293234999999",
   "longitude": "18.0685808",
   "event_type_name": "FridaysForFuture",
   "start_time": "",
   "start_dt": "",
   "capacity": "",
   "id": "",
   "start_day": "",
   "venue_zip": "",
   "is_official": "1",
   "id_obfuscated": "gpg5bt"
 },
 {
   "name": "FFF Gislaved",
   "location": "Sverige, Gislaved",
   "url": "https://www.facebook.com/events/2236540569920627/?ti=ia",
   "latitude": "57.2985",
   "longitude": "13.54326",
   "event_type_name": "FridaysForFuture",
   "start_time": "",
   "start_dt": "",
   "capacity": "",
   "id": "",
   "start_day": "",
   "venue_zip": "",
   "is_official": "1",
   "id_obfuscated": "gpg5bt"
 },
 {
   "name": "FFF Cardiff",
   "location": "UK, Cardiff",
   "url": "https://www.facebook.com/events/2259997817659527/",
   "latitude": "51.481581",
   "longitude": "-3.17909",
   "event_type_name": "FridaysForFuture",
   "start_time": "",
   "start_dt": "",
   "capacity": "",
   "id": "",
   "start_day": "",
   "venue_zip": "",
   "is_official": "1",
   "id_obfuscated": "gpg5bt"
 },
 {
   "name": "FFF Letchworth",
   "location": "UK, Letchworth",
   "url": "https://www.facebook.com/groups/929294497203110/",
   "latitude": "51.9776123",
   "longitude": "-0.2590337",
   "event_type_name": "FridaysForFuture",
   "start_time": "",
   "start_dt": "",
   "capacity": "",
   "id": "",
   "start_day": "",
   "venue_zip": "",
   "is_official": "1",
   "id_obfuscated": "gpg5bt"
 },
 {
   "name": "FFF Bari",
   "location": "Italy, Bari",
   "url": "https://www.facebook.com/bariwwf/",
   "latitude": "41.1171432",
   "longitude": "16.8718715",
   "event_type_name": "FridaysForFuture",
   "start_time": "",
   "start_dt": "",
   "capacity": "",
   "id": "",
   "start_day": "",
   "venue_zip": "",
   "is_official": "1",
   "id_obfuscated": "gpg5bt"
 },
 {
   "name": "FFF Ekerö",
   "location": "Sweden, Ekerö",
   "url": "https://www.facebook.com/events/2407451842621990/?ti=icl",
   "latitude": "59.359052",
   "longitude": "17.6694942",
   "event_type_name": "FridaysForFuture",
   "start_time": "",
   "start_dt": "",
   "capacity": "",
   "id": "",
   "start_day": "",
   "venue_zip": "",
   "is_official": "1",
   "id_obfuscated": "gpg5bt"
 },


 {
   "name": "FFF Kristianstad",
   "location": "Sverige, Kristianstad",
   "url": "https://www.facebook.com/groups/929294497203110/",
   "latitude": "56.0293936",
   "longitude": "14.1566779",
   "event_type_name": "FridaysForFuture",
   "start_time": "",
   "start_dt": "",
   "capacity": "",
   "id": "",
   "start_day": "",
   "venue_zip": "",
   "is_official": "1",
   "id_obfuscated": "gpg5bt"
 },
 {
   "name": "FFF Brooklyn",
   "location": "United States, Brooklyn",
   "url": "https://www.facebook.com/groups/929294497203110/",
   "latitude": "40.6781784",
   "longitude": "-73.9441579",
   "event_type_name": "FridaysForFuture",
   "start_time": "",
   "start_dt": "",
   "capacity": "",
   "id": "",
   "start_day": "",
   "venue_zip": "",
   "is_official": "1",
   "id_obfuscated": "gpg5bt"
 },
 {
   "name": "FFF Pisa",
   "location": "Italy, Pisa",
   "url": "https://www.facebook.com/Fridays-For-Future-Pisa-Italy-1028287830704488/",
   "latitude": "43.7228386",
   "longitude": "10.4016888",
   "event_type_name": "FridaysForFuture",
   "start_time": "",
   "start_dt": "",
   "capacity": "",
   "id": "",
   "start_day": "",
   "venue_zip": "",
   "is_official": "1",
   "id_obfuscated": "gpg5bt"
 },
 {
   "name": "FFF Saarbrücken",
   "location": "Germany, Saarbrücken",
   "url": "https://fridaysforfuture.de/18januar/",
   "latitude": "49.2401572",
   "longitude": "6.99693269999999",
   "event_type_name": "FridaysForFuture",
   "start_time": "",
   "start_dt": "",
   "capacity": "",
   "id": "",
   "start_day": "",
   "venue_zip": "",
   "is_official": "1",
   "id_obfuscated": "gpg5bt"
 },
 {
   "name": "FFF Växjö",
   "location": "Sweden, Växjö",
   "url": "https://www.facebook.com/groups/929294497203110/",
   "latitude": "56.8790044",
   "longitude": "14.8058523",
   "event_type_name": "FridaysForFuture",
   "start_time": "",
   "start_dt": "",
   "capacity": "",
   "id": "",
   "start_day": "",
   "venue_zip": "",
   "is_official": "1",
   "id_obfuscated": "gpg5bt"
 },
 {
   "name": "FFF Falkenberg",
   "location": "Sweden, Falkenberg",
   "url": "https://www.facebook.com/groups/929294497203110/",
   "latitude": "56.9027332999999",
   "longitude": "12.4888013",
   "event_type_name": "FridaysForFuture",
   "start_time": "",
   "start_dt": "",
   "capacity": "",
   "id": "",
   "start_day": "",
   "venue_zip": "",
   "is_official": "1",
   "id_obfuscated": "gpg5bt"
 },
 {
   "name": "FFF Jakobstad",
   "location": "Finland, Jakobstad",
   "url": "https://www.facebook.com/groups/213081162970952/",
   "latitude": "63.6744036",
   "longitude": "22.6966088",
   "event_type_name": "FridaysForFuture",
   "start_time": "",
   "start_dt": "",
   "capacity": "",
   "id": "",
   "start_day": "",
   "venue_zip": "",
   "is_official": "1",
   "id_obfuscated": "gpg5bt"
 },
 {
   "name": "FFF Salo",
   "location": "Finland, Salo",
   "url": "https://www.facebook.com/groups/929294497203110/",
   "latitude": "60.3900183",
   "longitude": "23.1171797",
   "event_type_name": "FridaysForFuture",
   "start_time": "",
   "start_dt": "",
   "capacity": "",
   "id": "",
   "start_day": "",
   "venue_zip": "",
   "is_official": "1",
   "id_obfuscated": "gpg5bt"
 },
 {
   "name": "FFF London",
   "location": "UK, London",
   "url": "https://www.facebook.com/events/301551180480086/",
   "latitude": "51.5073509",
   "longitude": "-0.1277583",
   "event_type_name": "FridaysForFuture",
   "start_time": "",
   "start_dt": "",
   "capacity": "",
   "id": "",
   "start_day": "",
   "venue_zip": "",
   "is_official": "1",
   "id_obfuscated": "gpg5bt"
 },
 {
   "name": "FFF New York City",
   "location": "United States, New York City",
   "url": "https://www.facebook.com/groups/929294497203110/",
   "latitude": "40.7127753",
   "longitude": "-74.0059728",
   "event_type_name": "FridaysForFuture",
   "start_time": "",
   "start_dt": "",
   "capacity": "",
   "id": "",
   "start_day": "",
   "venue_zip": "",
   "is_official": "1",
   "id_obfuscated": "gpg5bt"
 },
 {
   "name": "FFF Årsta ",
   "location": "Stockholm, Årsta ",
   "url": "https://www.facebook.com/groups/929294497203110/",
   "latitude": "59.2989204999999",
   "longitude": "18.0508926",
   "event_type_name": "FridaysForFuture",
   "start_time": "",
   "start_dt": "",
   "capacity": "",
   "id": "",
   "start_day": "",
   "venue_zip": "",
   "is_official": "1",
   "id_obfuscated": "gpg5bt"
 },
 {
   "name": "FFF Zwolle",
   "location": "Netherlands, Zwolle",
   "url": "https://www.facebook.com/groups/929294497203110/",
   "latitude": "52.5167747",
   "longitude": "6.08302189999999",
   "event_type_name": "FridaysForFuture",
   "start_time": "",
   "start_dt": "",
   "capacity": "",
   "id": "",
   "start_day": "",
   "venue_zip": "",
   "is_official": "1",
   "id_obfuscated": "gpg5bt"
 },
 {
   "name": "FFF Falun",
   "location": "Sverige , Falun",
   "url": "https://www.facebook.com/events/359776141268577/?event_time_id=359776154601909?ti=icl",
   "latitude": "60.60646",
   "longitude": "15.6355",
   "event_type_name": "FridaysForFuture",
   "start_time": "",
   "start_dt": "",
   "capacity": "",
   "id": "",
   "start_day": "",
   "venue_zip": "",
   "is_official": "1",
   "id_obfuscated": "gpg5bt"
 },
 {
   "name": "FFF Pasadena",
   "location": "United States, Pasadena",
   "url": "https://www.facebook.com/groups/929294497203110/",
   "latitude": "34.1477849",
   "longitude": "-118.1445155",
   "event_type_name": "FridaysForFuture",
   "start_time": "",
   "start_dt": "",
   "capacity": "",
   "id": "",
   "start_day": "",
   "venue_zip": "",
   "is_official": "1",
   "id_obfuscated": "gpg5bt"
 },
 {
   "name": "FFF Gettysburg",
   "location": "USA , Gettysburg",
   "url": "https://www.facebook.com/groups/929294497203110/",
   "latitude": "39.8309293",
   "longitude": "-77.2310955",
   "event_type_name": "FridaysForFuture",
   "start_time": "",
   "start_dt": "",
   "capacity": "",
   "id": "",
   "start_day": "",
   "venue_zip": "",
   "is_official": "1",
   "id_obfuscated": "gpg5bt"
 },
 {
   "name": "FFF Sheffield ",
   "location": "UK, Sheffield ",
   "url": "https://www.facebook.com/groups/929294497203110/",
   "latitude": "53.3811289999999",
   "longitude": "-1.470085",
   "event_type_name": "FridaysForFuture",
   "start_time": "",
   "start_dt": "",
   "capacity": "",
   "id": "",
   "start_day": "",
   "venue_zip": "",
   "is_official": "1",
   "id_obfuscated": "gpg5bt"
 },
 {
   "name": "FFF Milan",
   "location": "Italy, Milan",
   "url": "https://www.facebook.com/FFFMilan/",
   "latitude": "45.4642035",
   "longitude": "9.189982",
   "event_type_name": "FridaysForFuture",
   "start_time": "",
   "start_dt": "",
   "capacity": "",
   "id": "",
   "start_day": "",
   "venue_zip": "",
   "is_official": "1",
   "id_obfuscated": "gpg5bt"
 },
 {
   "name": "FFF Visby",
   "location": "Sweden, Visby",
   "url": "https://www.facebook.com/events/346247906200850/",
   "latitude": "57.6348",
   "longitude": "18.29484",
   "event_type_name": "FridaysForFuture",
   "start_time": "",
   "start_dt": "",
   "capacity": "",
   "id": "",
   "start_day": "",
   "venue_zip": "",
   "is_official": "1",
   "id_obfuscated": "gpg5bt"
 },
 {
   "name": "FFF Stockholm",
   "location": "Sweden, Stockholm",
   "url": "https://www.facebook.com/groups/929294497203110/",
   "latitude": "59.3293234999999",
   "longitude": "18.0685808",
   "event_type_name": "FridaysForFuture",
   "start_time": "",
   "start_dt": "",
   "capacity": "",
   "id": "",
   "start_day": "",
   "venue_zip": "",
   "is_official": "1",
   "id_obfuscated": "gpg5bt"
 },
 {
   "name": "FFF Borås",
   "location": "Sweden, Borås",
   "url": "https://www.facebook.com/groups/929294497203110/",
   "latitude": "57.721035",
   "longitude": "12.939819",
   "event_type_name": "FridaysForFuture",
   "start_time": "",
   "start_dt": "",
   "capacity": "",
   "id": "",
   "start_day": "",
   "venue_zip": "",
   "is_official": "1",
   "id_obfuscated": "gpg5bt"
 },
 {
   "name": "FFF Mora",
   "location": "Sweden, Mora",
   "url": "https://facebook.com/KlimatetMora",
   "latitude": "61.0070944",
   "longitude": "14.5172103",
   "event_type_name": "FridaysForFuture",
   "start_time": "",
   "start_dt": "",
   "capacity": "",
   "id": "",
   "start_day": "",
   "venue_zip": "",
   "is_official": "1",
   "id_obfuscated": "gpg5bt"
 },
 {
   "name": "FFF Ånge",
   "location": "Sverige , Ånge",
   "url": "https://www.facebook.com/events/998826623638790/",
   "latitude": "62.5228738",
   "longitude": "15.6589419",
   "event_type_name": "FridaysForFuture",
   "start_time": "",
   "start_dt": "",
   "capacity": "",
   "id": "",
   "start_day": "",
   "venue_zip": "",
   "is_official": "1",
   "id_obfuscated": "gpg5bt"
 },
 {
   "name": "FFF Östersund",
   "location": "Sverige, ÖSTERSUND",
   "url": "https://www.facebook.com/events/377071626197568/",
   "latitude": "63.1766832",
   "longitude": "14.6360681",
   "event_type_name": "FridaysForFuture",
   "start_time": "",
   "start_dt": "",
   "capacity": "",
   "id": "",
   "start_day": "",
   "venue_zip": "",
   "is_official": "1",
   "id_obfuscated": "gpg5bt"
 },
 {
   "name": "FFF Södertälje",
   "location": "Sweden, Södertälje",
   "url": "https://www.facebook.com/events/489066498283643/?ti=icl",
   "latitude": "59.195363",
   "longitude": "17.625689",
   "event_type_name": "FridaysForFuture",
   "start_time": "",
   "start_dt": "",
   "capacity": "",
   "id": "",
   "start_day": "",
   "venue_zip": "",
   "is_official": "1",
   "id_obfuscated": "gpg5bt"
 },
 {
   "name": "FFF Calgary",
   "location": "Canada, Calgary",
   "url": "https://www.facebook.com/groups/929294497203110/",
   "latitude": "51.0486151",
   "longitude": "-114.0708459",
   "event_type_name": "FridaysForFuture",
   "start_time": "",
   "start_dt": "",
   "capacity": "",
   "id": "",
   "start_day": "",
   "venue_zip": "",
   "is_official": "1",
   "id_obfuscated": "gpg5bt"
 },
 {
   "name": "FFF Tampere",
   "location": "Finland, Tampere",
   "url": "https://www.facebook.com/events/1056375227884145/",
   "latitude": "61.4977524",
   "longitude": "23.7609535",
   "event_type_name": "FridaysForFuture",
   "start_time": "",
   "start_dt": "",
   "capacity": "",
   "id": "",
   "start_day": "",
   "venue_zip": "",
   "is_official": "1",
   "id_obfuscated": "gpg5bt"
 },
 {
   "name": "FFF Swansea",
   "location": "UK, Swansea",
   "url": "https://www.facebook.com/groups/929294497203110/",
   "latitude": "51.62144",
   "longitude": "-3.94364599999999",
   "event_type_name": "FridaysForFuture",
   "start_time": "",
   "start_dt": "",
   "capacity": "",
   "id": "",
   "start_day": "",
   "venue_zip": "",
   "is_official": "1",
   "id_obfuscated": "gpg5bt"
 },
 {
   "name": "FFF Annapolis, Maryland",
   "location": "United States of America, Annapolis, Maryland",
   "url": "https://www.facebook.com/events/2270475762982754/",
   "latitude": "38.9784453",
   "longitude": "-76.4921829",
   "event_type_name": "FridaysForFuture",
   "start_time": "",
   "start_dt": "",
   "capacity": "",
   "id": "",
   "start_day": "",
   "venue_zip": "",
   "is_official": "1",
   "id_obfuscated": "gpg5bt"
 },
 {
   "name": "FFF Brighton",
   "location": "UK, Brighton",
   "url": "https://www.facebook.com/events/221779412035086/",
   "latitude": "50.8374127",
   "longitude": "-0.141209",
   "event_type_name": "FridaysForFuture",
   "start_time": "",
   "start_dt": "",
   "capacity": "",
   "id": "",
   "start_day": "",
   "venue_zip": "",
   "is_official": "1",
   "id_obfuscated": "gpg5bt"
 },
 {
   "name": "FFF Preston",
   "location": "UK, Preston",
   "url": "https://www.facebook.com/groups/929294497203110/",
   "latitude": "53.7702509",
   "longitude": "-2.732171",
   "event_type_name": "FridaysForFuture",
   "start_time": "",
   "start_dt": "",
   "capacity": "",
   "id": "",
   "start_day": "",
   "venue_zip": "",
   "is_official": "1",
   "id_obfuscated": "gpg5bt"
 },{
   "name": "FFF Ullapool",
   "location": "UK, Ullapool",
   "url": "https://www.facebook.com/groups/929294497203110/",
   "latitude": "57.895418",
   "longitude": "-5.161313",
   "event_type_name": "FridaysForFuture",
   "start_time": "",
   "start_dt": "",
   "capacity": "",
   "id": "",
   "start_day": "",
   "venue_zip": "",
   "is_official": "1",
   "id_obfuscated": "gpg5bt"
 },
 {
   "name": "FFF Kitchener-Waterloo",
   "location": "Canada, Kitchener-Waterloo",
   "url": "https://www.facebook.com/events/1163394617169359/",
   "latitude": "43.4516395",
   "longitude": "-80.4925337",
   "event_type_name": "FridaysForFuture",
   "start_time": "",
   "start_dt": "",
   "capacity": "",
   "id": "",
   "start_day": "",
   "venue_zip": "",
   "is_official": "1",
   "id_obfuscated": "gpg5bt"
 },
 {
   "name": "FFF London",
   "location": "Canada, London",
   "url": "https://www.facebook.com/events/1882780671849726/",
   "latitude": "51.5073509",
   "longitude": "-0.1277583",
   "event_type_name": "FridaysForFuture",
   "start_time": "",
   "start_dt": "",
   "capacity": "",
   "id": "",
   "start_day": "",
   "venue_zip": "",
   "is_official": "1",
   "id_obfuscated": "gpg5bt"
 },

 
 {
   "name": "FFF Como",
   "location": "Italy, Como",
   "url": "https://www.facebook.com/groups/929294497203110/",
   "latitude": "45.8005304",
   "longitude": "9.0504089",
   "event_type_name": "FridaysForFuture",
   "start_time": "",
   "start_dt": "",
   "capacity": "",
   "id": "",
   "start_day": "",
   "venue_zip": "",
   "is_official": "1",
   "id_obfuscated": "gpg5bt"
 },

 {
   "name": "FFF Bristol",
   "location": "UK, Bristol",
   "url": "https://www.facebook.com/Bristolyouthstrikers4Climate/",
   "latitude": "51.454513",
   "longitude": "-2.58791",
   "event_type_name": "FridaysForFuture",
   "start_time": "",
   "start_dt": "",
   "capacity": "",
   "id": "",
   "start_day": "",
   "venue_zip": "",
   "is_official": "1",
   "id_obfuscated": "gpg5bt"
 },
 {
   "name": "FFF Colombia",
   "location": "Colombia, Colombia",
   "url": "https://www.facebook.com/groups/929294497203110/",
   "latitude": "4.570868",
   "longitude": "-74.297333",
   "event_type_name": "FridaysForFuture",
   "start_time": "",
   "start_dt": "",
   "capacity": "",
   "id": "",
   "start_day": "",
   "venue_zip": "",
   "is_official": "1",
   "id_obfuscated": "gpg5bt"
 },
 {
   "name": "FFF Toronto",
   "location": "Canada, Toronto",
   "url": "https://www.facebook.com/events/297312280921691/",
   "latitude": "43.653226",
   "longitude": "-79.3831843",
   "event_type_name": "FridaysForFuture",
   "start_time": "",
   "start_dt": "",
   "capacity": "",
   "id": "",
   "start_day": "",
   "venue_zip": "",
   "is_official": "1",
   "id_obfuscated": "gpg5bt"
 },
 {
   "name": "FFF Ocean Grove",
   "location": "Australia, Ocean Grove",
   "url": "https://www.facebook.com/groups/929294497203110/",
   "latitude": "40.2120575",
   "longitude": "-74.0065257999999",
   "event_type_name": "FridaysForFuture",
   "start_time": "",
   "start_dt": "",
   "capacity": "",
   "id": "",
   "start_day": "",
   "venue_zip": "",
   "is_official": "1",
   "id_obfuscated": "gpg5bt"
 },
 {
   "name": "FFF Trosa ",
   "location": "Sweden, Trosa ",
   "url": "https://www.facebook.com/groups/1623110534457336/",
   "latitude": "35.9785793",
   "longitude": "-78.9284069999999",
   "event_type_name": "FridaysForFuture",
   "start_time": "",
   "start_dt": "",
   "capacity": "",
   "id": "",
   "start_day": "",
   "venue_zip": "",
   "is_official": "1",
   "id_obfuscated": "gpg5bt"
 },
 {
   "name": "FFF Vancouver",
   "location": "Canada, Vancouver",
   "url": "https://www.facebook.com/events/375794373205723",
   "latitude": "49.2827291",
   "longitude": "-123.1207375",
   "event_type_name": "FridaysForFuture",
   "start_time": "",
   "start_dt": "",
   "capacity": "",
   "id": "",
   "start_day": "",
   "venue_zip": "",
   "is_official": "1",
   "id_obfuscated": "gpg5bt"
 },
 {
   "name": "FFF Palmerston North",
   "location": "New Zealand, Palmerston North",
   "url": "facebook.com/events/238402246903178/",
   "latitude": "-40.3523065",
   "longitude": "175.6082145",
   "event_type_name": "FridaysForFuture",
   "start_time": "",
   "start_dt": "",
   "capacity": "",
   "id": "",
   "start_day": "",
   "venue_zip": "",
   "is_official": "1",
   "id_obfuscated": "gpg5bt"
 },
 {
   "name": "FFF Denver ",
   "location": "United States, Denver ",
   "url": "https://www.facebook.com/groups/929294497203110/",
   "latitude": "39.7392358",
   "longitude": "-104.990251",
   "event_type_name": "FridaysForFuture",
   "start_time": "",
   "start_dt": "",
   "capacity": "",
   "id": "",
   "start_day": "",
   "venue_zip": "",
   "is_official": "1",
   "id_obfuscated": "gpg5bt"
 },





 /*bug on top*/
 {
   "name": "FFF Bournemouth",
   "location": "UK, Bournemouth",
   "url": "https://www.facebook.com/groups/929294497203110/",
   "latitude": "50.719164",
   "longitude": "-1.880769",
   "event_type_name": "FridaysForFuture",
   "start_time": "",
   "start_dt": "",
   "capacity": "",
   "id": "",
   "start_day": "",
   "venue_zip": "",
   "is_official": "1",
   "id_obfuscated": "gpg5bt"
 },
 {
   "name": "FFF Exeter",
   "location": "UK, Exeter",
   "url": "https://www.facebook.com/events/655579168191310/",
   "latitude": "50.718412",
   "longitude": "-3.533899",
   "event_type_name": "FridaysForFuture",
   "start_time": "",
   "start_dt": "",
   "capacity": "",
   "id": "",
   "start_day": "",
   "venue_zip": "",
   "is_official": "1",
   "id_obfuscated": "gpg5bt"
 },
 {
   "name": "FFF Southampton ",
   "location": "UK, Southampton ",
   "url": "https://www.facebook.com/groups/929294497203110/",
   "latitude": "50.9097004",
   "longitude": "-1.4043509",
   "event_type_name": "FridaysForFuture",
   "start_time": "",
   "start_dt": "",
   "capacity": "",
   "id": "",
   "start_day": "",
   "venue_zip": "",
   "is_official": "1",
   "id_obfuscated": "gpg5bt"
 },
 {
   "name": "FFF Geelong",
   "location": "Australia, Geelong",
   "url": "https://www.facebook.com/groups/929294497203110/",
   "latitude": "-38.1499181",
   "longitude": "144.3617186",
   "event_type_name": "FridaysForFuture",
   "start_time": "",
   "start_dt": "",
   "capacity": "",
   "id": "",
   "start_day": "",
   "venue_zip": "",
   "is_official": "1",
   "id_obfuscated": "gpg5bt"
 },
 {
   "name": "FFF Anywhere In Australia",
   "location": "Australia, Anywhere in Australia",
   "url": "https://www.facebook.com/groups/929294497203110/",
   "latitude": "-33.923581",
   "longitude": "151.227413",
   "event_type_name": "FridaysForFuture",
   "start_time": "",
   "start_dt": "",
   "capacity": "",
   "id": "",
   "start_day": "",
   "venue_zip": "",
   "is_official": "1",
   "id_obfuscated": "gpg5bt"
 },
 {
   "name": "FFF Leeds",
   "location": "UK, Leeds",
   "url": "https://www.facebook.com/events/1001608966693880/",
   "latitude": "53.8007554",
   "longitude": "-1.5490774",
   "event_type_name": "FridaysForFuture",
   "start_time": "",
   "start_dt": "",
   "capacity": "",
   "id": "",
   "start_day": "",
   "venue_zip": "",
   "is_official": "1",
   "id_obfuscated": "gpg5bt"
 },
 {
   "name": "FFF Nsukka",
   "location": "Nigeria, Nsukka",
   "url": "https://www.facebook.com/groups/929294497203110/",
   "latitude": "6.8429422",
   "longitude": "7.3732655",
   "event_type_name": "FridaysForFuture",
   "start_time": "",
   "start_dt": "",
   "capacity": "",
   "id": "",
   "start_day": "",
   "venue_zip": "",
   "is_official": "1",
   "id_obfuscated": "gpg5bt"
 },
 {
   "name": "FFF Istanbul",
   "location": "Turkey, Istanbul",
   "url": "https://www.facebook.com/groups/929294497203110/",
   "latitude": "41.0082376",
   "longitude": "28.9783589",
   "event_type_name": "FridaysForFuture",
   "start_time": "",
   "start_dt": "",
   "capacity": "",
   "id": "",
   "start_day": "",
   "venue_zip": "",
   "is_official": "1",
   "id_obfuscated": "gpg5bt"
 },
 {
   "name": "FFF Paris",
   "location": "France, Paris",
   "url": "https://www.facebook.com/groups/929294497203110/",
   "latitude": "48.856614",
   "longitude": "2.3522219",
   "event_type_name": "FridaysForFuture",
   "start_time": "",
   "start_dt": "",
   "capacity": "",
   "id": "",
   "start_day": "",
   "venue_zip": "",
   "is_official": "1",
   "id_obfuscated": "gpg5bt"
 },
 {
   "name": "FFF Roma",
   "location": "Italy, Roma",
   "url": "https://www.facebook.com/groups/929294497203110/",
   "latitude": "36.0766378",
   "longitude": "-95.9036356",
   "event_type_name": "FridaysForFuture",
   "start_time": "",
   "start_dt": "",
   "capacity": "",
   "id": "",
   "start_day": "",
   "venue_zip": "",
   "is_official": "1",
   "id_obfuscated": "gpg5bt"
 },
 {
   "name": "FFF Kassel",
   "location": "Germany, Kassel",
   "url": "https://www.facebook.com/groups/929294497203110/",
   "latitude": "51.3127114",
   "longitude": "9.4797461",
   "event_type_name": "FridaysForFuture",
   "start_time": "",
   "start_dt": "",
   "capacity": "",
   "id": "",
   "start_day": "",
   "venue_zip": "",
   "is_official": "1",
   "id_obfuscated": "gpg5bt"
 },
 {
   "name": "FFF Trieste",
   "location": "Italy, Trieste",
   "url": "https://www.facebook.com/events/1973320836296211/?ti=icl",
   "latitude": "45.6495264",
   "longitude": "13.7768182",
   "event_type_name": "FridaysForFuture",
   "start_time": "",
   "start_dt": "",
   "capacity": "",
   "id": "",
   "start_day": "",
   "venue_zip": "",
   "is_official": "1",
   "id_obfuscated": "gpg5bt"
 },
 {
   "name": "FFF Skåne",
   "location": "Sweden , Skåne",
   "url": "https://www.facebook.com/groups/929294497203110/",
   "latitude": "55.9902571999999",
   "longitude": "13.5957692",
   "event_type_name": "FridaysForFuture",
   "start_time": "",
   "start_dt": "",
   "capacity": "",
   "id": "",
   "start_day": "",
   "venue_zip": "",
   "is_official": "1",
   "id_obfuscated": "gpg5bt"
 },
 {
   "name": "FFF Helsingborg",
   "location": "Sweden, Helsingborg",
   "url": "https://www.facebook.com/groups/929294497203110/",
   "latitude": "56.0464674",
   "longitude": "12.6945121",
   "event_type_name": "FridaysForFuture",
   "start_time": "",
   "start_dt": "",
   "capacity": "",
   "id": "",
   "start_day": "",
   "venue_zip": "",
   "is_official": "1",
   "id_obfuscated": "gpg5bt"
 },
 {
   "name": "FFF Ljubljana",
   "location": "Slovenia, Ljubljana",
   "url": "https://www.facebook.com/groups/929294497203110/",
   "latitude": "46.0569465",
   "longitude": "14.5057515",
   "event_type_name": "FridaysForFuture",
   "start_time": "",
   "start_dt": "",
   "capacity": "",
   "id": "",
   "start_day": "",
   "venue_zip": "",
   "is_official": "1",
   "id_obfuscated": "gpg5bt"
 },
 {
   "name": "FFF Landskrona",
   "location": "Sweden, Landskrona",
   "url": "https://www.facebook.com/events/299875897386073/",
   "latitude": "55.8703477",
   "longitude": "12.8300802",
   "event_type_name": "FridaysForFuture",
   "start_time": "",
   "start_dt": "",
   "capacity": "",
   "id": "",
   "start_day": "",
   "venue_zip": "",
   "is_official": "1",
   "id_obfuscated": "gpg5bt"
 },
 {
   "name": "FFF Sundebru",
   "location": "Norway, Sundebru",
   "url": "https://www.facebook.com/groups/929294497203110/",
   "latitude": "58.841399",
   "longitude": "9.091899",
   "event_type_name": "FridaysForFuture",
   "start_time": "",
   "start_dt": "",
   "capacity": "",
   "id": "",
   "start_day": "",
   "venue_zip": "",
   "is_official": "1",
   "id_obfuscated": "gpg5bt"
 },
 {
   "name": "FFF Vaasa",
   "location": "Finland, Vaasa",
   "url": "https://www.facebook.com/groups/929294497203110/",
   "latitude": "63.0950889999999",
   "longitude": "21.6164564",
   "event_type_name": "FridaysForFuture",
   "start_time": "",
   "start_dt": "",
   "capacity": "",
   "id": "",
   "start_day": "",
   "venue_zip": "",
   "is_official": "1",
   "id_obfuscated": "gpg5bt"
 },
 {
   "name": "FFF Turin",
   "location": "Italy, Turin",
   "url": "https://www.facebook.com/groups/929294497203110/",
   "latitude": "45.0703393",
   "longitude": "7.686864",
   "event_type_name": "FridaysForFuture",
   "start_time": "",
   "start_dt": "",
   "capacity": "",
   "id": "",
   "start_day": "",
   "venue_zip": "",
   "is_official": "1",
   "id_obfuscated": "gpg5bt"
 },
 {
   "name": "FFF Roma",
   "location": "Italia, Roma",
   "url": "https://www.facebook.com/events/333574980700786/335180183873599/",
   "latitude": "36.0766378",
   "longitude": "-95.9036356",
   "event_type_name": "FridaysForFuture",
   "start_time": "",
   "start_dt": "",
   "capacity": "",
   "id": "",
   "start_day": "",
   "venue_zip": "",
   "is_official": "1",
   "id_obfuscated": "gpg5bt"
 },
 {
   "name": "FFF Gothenburg",
   "location": "Sweden, Gothenburg",
   "url": "https://www.facebook.com/groups/929294497203110/",
   "latitude": "57.70887",
   "longitude": "11.97456",
   "event_type_name": "FridaysForFuture",
   "start_time": "",
   "start_dt": "",
   "capacity": "",
   "id": "",
   "start_day": "",
   "venue_zip": "",
   "is_official": "1",
   "id_obfuscated": "gpg5bt"
 },
 {
   "name": "FFF Karlskrona",
   "location": "Sweden, Karlskrona",
   "url": "https://www.facebook.com/fridaysforfuturekarlskrona/?modal=admin_todo_tour",
   "latitude": "56.161224",
   "longitude": "15.5869001",
   "event_type_name": "FridaysForFuture",
   "start_time": "",
   "start_dt": "",
   "capacity": "",
   "id": "",
   "start_day": "",
   "venue_zip": "",
   "is_official": "1",
   "id_obfuscated": "gpg5bt"
 },
 {
   "name": "FFF Cork City",
   "location": "Ireland, Cork City",
   "url": "https://www.facebook.com/groups/929294497203110/",
   "latitude": "51.8985143",
   "longitude": "-8.4756035",
   "event_type_name": "FridaysForFuture",
   "start_time": "",
   "start_dt": "",
   "capacity": "",
   "id": "",
   "start_day": "",
   "venue_zip": "",
   "is_official": "1",
   "id_obfuscated": "gpg5bt"
 },
 {
   "name": "FFF Edinburgh",
   "location": "UK, Edinburgh",
   "url": "https://www.facebook.com/events/2228599534063775/",
   "latitude": "55.953252",
   "longitude": "-3.188267",
   "event_type_name": "FridaysForFuture",
   "start_time": "",
   "start_dt": "",
   "capacity": "",
   "id": "",
   "start_day": "",
   "venue_zip": "",
   "is_official": "1",
   "id_obfuscated": "gpg5bt"
 },
 {
   "name": "FFF Stockholm",
   "location": "Sverige, Stockholm",
   "url": "https://www.facebook.com/Fridays-for-future-Stockholm-University-292597138097335/",
   "latitude": "59.3293234999999",
   "longitude": "18.0685808",
   "event_type_name": "FridaysForFuture",
   "start_time": "",
   "start_dt": "",
   "capacity": "",
   "id": "",
   "start_day": "",
   "venue_zip": "",
   "is_official": "1",
   "id_obfuscated": "gpg5bt"
 },
 {
   "name": "FFF Vizille",
   "location": "France, Vizille",
   "url": "https://www.facebook.com/groups/929294497203110/",
   "latitude": "45.077318",
   "longitude": "5.772412",
   "event_type_name": "FridaysForFuture",
   "start_time": "",
   "start_dt": "",
   "capacity": "",
   "id": "",
   "start_day": "",
   "venue_zip": "",
   "is_official": "1",
   "id_obfuscated": "gpg5bt"
 },
 {
   "name": "FFF Dublin",
   "location": "Ireland, Dublin",
   "url": "https://www.facebook.com/groups/929294497203110/",
   "latitude": "53.3498053",
   "longitude": "-6.2603097",
   "event_type_name": "FridaysForFuture",
   "start_time": "",
   "start_dt": "",
   "capacity": "",
   "id": "",
   "start_day": "",
   "venue_zip": "",
   "is_official": "1",
   "id_obfuscated": "gpg5bt"
 },
 {
   "name": "FFF Orange, Ca",
   "location": "USA, California, Orange, CA",
   "url": "https://www.facebook.com/groups/929294497203110/",
   "latitude": "33.7879139",
   "longitude": "-117.8531007",
   "event_type_name": "FridaysForFuture",
   "start_time": "",
   "start_dt": "",
   "capacity": "",
   "id": "",
   "start_day": "",
   "venue_zip": "",
   "is_official": "1",
   "id_obfuscated": "gpg5bt"
 },
 {
   "name": "FFF London",
   "location": "UK, London",
   "url": "https://www.facebook.com/groups/929294497203110/",
   "latitude": "51.5073509",
   "longitude": "-0.1277583",
   "event_type_name": "FridaysForFuture",
   "start_time": "",
   "start_dt": "",
   "capacity": "",
   "id": "",
   "start_day": "",
   "venue_zip": "",
   "is_official": "1",
   "id_obfuscated": "gpg5bt"
 },
 {
   "name": "FFF Stroud",
   "location": "UK, Stroud",
   "url": "https://www.facebook.com/groups/929294497203110/",
   "latitude": "51.745734",
   "longitude": "-2.217758",
   "event_type_name": "FridaysForFuture",
   "start_time": "",
   "start_dt": "",
   "capacity": "",
   "id": "",
   "start_day": "",
   "venue_zip": "",
   "is_official": "1",
   "id_obfuscated": "gpg5bt"
 },
 {
   "name": "FFF Alingsås",
   "location": "Sweden, ALINGSÅS",
   "url": "https://www.facebook.com/groups/929294497203110/",
   "latitude": "57.9300205",
   "longitude": "12.5362113",
   "event_type_name": "FridaysForFuture",
   "start_time": "",
   "start_dt": "",
   "capacity": "",
   "id": "",
   "start_day": "",
   "venue_zip": "",
   "is_official": "1",
   "id_obfuscated": "gpg5bt"
 },
 {
   "name": "FFF Aneby",
   "location": "Alingsås, ANEBY",
   "url": "https://www.facebook.com/groups/929294497203110/",
   "latitude": "57.838521",
   "longitude": "14.8178022",
   "event_type_name": "FridaysForFuture",
   "start_time": "",
   "start_dt": "",
   "capacity": "",
   "id": "",
   "start_day": "",
   "venue_zip": "",
   "is_official": "1",
   "id_obfuscated": "gpg5bt"
 },
 {
   "name": "FFF Halmstad",
   "location": "Sweden, HALMSTAD",
   "url": "https://www.facebook.com/groups/929294497203110/",
   "latitude": "56.6743748",
   "longitude": "12.8577885",
   "event_type_name": "FridaysForFuture",
   "start_time": "",
   "start_dt": "",
   "capacity": "",
   "id": "",
   "start_day": "",
   "venue_zip": "",
   "is_official": "1",
   "id_obfuscated": "gpg5bt"
 },
 {
   "name": "FFF Luleå",
   "location": "Sweden, LULEÅ",
   "url": "https://www.facebook.com/groups/929294497203110/",
   "latitude": "65.584819",
   "longitude": "22.1567026",
   "event_type_name": "FridaysForFuture",
   "start_time": "",
   "start_dt": "",
   "capacity": "",
   "id": "",
   "start_day": "",
   "venue_zip": "",
   "is_official": "1",
   "id_obfuscated": "gpg5bt"
 },
 {
   "name": "FFF Stadshuset, Rådhusgatan 11",
   "location": "Luleå, Stadshuset, Rådhusgatan 11",
   "url": "https://www.facebook.com/fridaysforfuturenorrbotten/",
   "latitude": "62.3894062",
   "longitude": "17.3111666",
   "event_type_name": "FridaysForFuture",
   "start_time": "",
   "start_dt": "",
   "capacity": "",
   "id": "",
   "start_day": "",
   "venue_zip": "",
   "is_official": "1",
   "id_obfuscated": "gpg5bt"
 },
 {
   "name": "FFF Lysekil",
   "location": "Sweden, Lysekil",
   "url": "https://www.facebook.com/groups/929294497203110/",
   "latitude": "58.2755729999999",
   "longitude": "11.435558",
   "event_type_name": "FridaysForFuture",
   "start_time": "",
   "start_dt": "",
   "capacity": "",
   "id": "",
   "start_day": "",
   "venue_zip": "",
   "is_official": "1",
   "id_obfuscated": "gpg5bt"
 },
 {
   "name": "FFF Malmö Stadshus",
   "location": "Sweden, Malmö stadshus",
   "url": "https://www.facebook.com/groups/929294497203110/",
   "latitude": "55.5979986",
   "longitude": "13.0074229",
   "event_type_name": "FridaysForFuture",
   "start_time": "",
   "start_dt": "",
   "capacity": "",
   "id": "",
   "start_day": "",
   "venue_zip": "",
   "is_official": "1",
   "id_obfuscated": "gpg5bt"
 },
 {
   "name": "FFF Norrtälje",
   "location": "Sweden, Norrtälje",
   "url": "https://www.facebook.com/events/723286268043385/",
   "latitude": "59.7595841",
   "longitude": "18.7013584",
   "event_type_name": "FridaysForFuture",
   "start_time": "",
   "start_dt": "",
   "capacity": "",
   "id": "",
   "start_day": "",
   "venue_zip": "",
   "is_official": "1",
   "id_obfuscated": "gpg5bt"
 },
 {
   "name": "FFF Örebro",
   "location": "Sweden, Örebro",
   "url": "https://www.facebook.com/groups/929294497203110/",
   "latitude": "59.2752626",
   "longitude": "15.2134105",
   "event_type_name": "FridaysForFuture",
   "start_time": "",
   "start_dt": "",
   "capacity": "",
   "id": "",
   "start_day": "",
   "venue_zip": "",
   "is_official": "1",
   "id_obfuscated": "gpg5bt"
 },
 {
   "name": "FFF Simrishamn",
   "location": "Sweden, Simrishamn",
   "url": "https://www.facebook.com/groups/929294497203110/",
   "latitude": "55.5573959",
   "longitude": "14.3489651",
   "event_type_name": "FridaysForFuture",
   "start_time": "",
   "start_dt": "",
   "capacity": "",
   "id": "",
   "start_day": "",
   "venue_zip": "",
   "is_official": "1",
   "id_obfuscated": "gpg5bt"
 },
 {
   "name": "FFF Uppsala",
   "location": "Sweden, Uppsala",
   "url": "https://www.facebook.com/groups/929294497203110/",
   "latitude": "59.8585638",
   "longitude": "17.6389267",
   "event_type_name": "FridaysForFuture",
   "start_time": "",
   "start_dt": "",
   "capacity": "",
   "id": "",
   "start_day": "",
   "venue_zip": "",
   "is_official": "1",
   "id_obfuscated": "gpg5bt"
 },
 {
   "name": "FFF Vallentuna",
   "location": "Sweden, Vallentuna",
   "url": "https://www.facebook.com/groups/929294497203110/",
   "latitude": "59.5356999999999",
   "longitude": "18.078017",
   "event_type_name": "FridaysForFuture",
   "start_time": "",
   "start_dt": "",
   "capacity": "",
   "id": "",
   "start_day": "",
   "venue_zip": "",
   "is_official": "1",
   "id_obfuscated": "gpg5bt"
 },
 {
   "name": "FFF Västerås",
   "location": "Sweden, Västerås",
   "url": "https://www.facebook.com/groups/929294497203110/",
   "latitude": "59.6099004999999",
   "longitude": "16.5448092",
   "event_type_name": "FridaysForFuture",
   "start_time": "",
   "start_dt": "",
   "capacity": "",
   "id": "",
   "start_day": "",
   "venue_zip": "",
   "is_official": "1",
   "id_obfuscated": "gpg5bt"
 },
 {
   "name": "FFF Västervik 12-13",
   "location": ", Västervik 12-13",
   "url": "https://www.facebook.com/groups/929294497203110/",
   "latitude": "57.7577155999999",
   "longitude": "16.6369759",
   "event_type_name": "FridaysForFuture",
   "start_time": "",
   "start_dt": "",
   "capacity": "",
   "id": "",
   "start_day": "",
   "venue_zip": "",
   "is_official": "1",
   "id_obfuscated": "gpg5bt"
 },

 /*ajout 7 mars*/
 {
   "name": "Printemps Climatique Dole",
   "location": "Dole, France",
   "url": "https://www.facebook.com/groups/2036430503085736/?epa=SEARCH_BOX",
   "latitude": "38.9697427",
   "longitude": "-94.7323481",
   "event_type_name": "FridaysForFuture",
   "start_time": "",
   "start_dt": "",
   "capacity": "",
   "id": "",
   "start_day": "2019-03-15",
   "venue_zip": "",
   "is_official": "1",
     "id_obfuscated": "gpg5bt"
 },
 {
   "name": "Printemps Climatique Toulouse",
   "location": "Toulouse, France",
   "url": "https://www.facebook.com/events/368938227020844/",
   "latitude": "43.604652",
   "longitude": "1.444209",
   "event_type_name": "FridaysForFuture",
   "start_time": "",
   "start_dt": "",
   "capacity": "",
   "id": "",
   "start_day": "2019-03-15",
   "venue_zip": "",
   "is_official": "1",
     "id_obfuscated": "gpg5bt"
 },
 {
   "name": "Printemps Climatique Montpellier",
   "location": "Montpellier, France",
   "url": "https://www.facebook.com/events/2260619394187386/",
   "latitude": "43.610769",
   "longitude": "3.876716",
   "event_type_name": "FridaysForFuture",
   "start_time": "",
   "start_dt": "",
   "capacity": "",
   "id": "",
   "start_day": "2019-03-16",
   "venue_zip": "",
   "is_official": "1",
     "id_obfuscated": "gpg5bt"
 },
 {
   "name": "Printemps Climatique Besançon",
   "location": "Besançon, France",
   "url": "https://www.facebook.com/events/392601318177884/?ti=as",
   "latitude": "47.237829",
   "longitude": "6.02405389999999",
   "event_type_name": "FridaysForFuture",
   "start_time": "",
   "start_dt": "",
   "capacity": "",
   "id": "",
   "start_day": "2019-03-15",
   "venue_zip": "",
   "is_official": "1",
     "id_obfuscated": "gpg5bt"
 },
 {
   "name": "Printemps Climatique Tours",
   "location": "Tours, France",
   "url": "https://www.facebook.com/1401688853444008/posts/2338116283134589?sfns=mo",
   "latitude": "47.394144",
   "longitude": "0.68484",
   "event_type_name": "FridaysForFuture",
   "start_time": "",
   "start_dt": "",
   "capacity": "",
   "id": "",
   "start_day": "2019-03-16",
   "venue_zip": "",
   "is_official": "1",
     "id_obfuscated": "gpg5bt"
 },
 {
   "name": "Printemps Climatique Saint Brieuc",
   "location": "Saint Brieuc, France",
   "url": "https://www.facebook.com/events/249387022658507/",
   "latitude": "48.51418",
   "longitude": "-2.765835",
   "event_type_name": "FridaysForFuture",
   "start_time": "",
   "start_dt": "",
   "capacity": "",
   "id": "",
   "start_day": "2019-03-17",
   "venue_zip": "",
   "is_official": "1",
     "id_obfuscated": "gpg5bt"
 },
 {
   "name": "Printemps Climatique Laval (En Mayenne)",
   "location": "Laval (En Mayenne), France",
   "url": "https://www.facebook.com/groups/282114802436075/",
   "latitude": "48.0785146",
   "longitude": "-0.7669906",
   "event_type_name": "FridaysForFuture",
   "start_time": "",
   "start_dt": "",
   "capacity": "",
   "id": "",
   "start_day": "2019-03-16",
   "venue_zip": "",
   "is_official": "1",
     "id_obfuscated": "gpg5bt"
 },
 {
   "name": "Printemps Climatique Lyon",
   "location": "Lyon, France",
   "url": "https://www.facebook.com/events/403048983779815/",
   "latitude": "45.764043",
   "longitude": "4.835659",
   "event_type_name": "FridaysForFuture",
   "start_time": "",
   "start_dt": "",
   "capacity": "",
   "id": "",
   "start_day": "2019-03-16",
   "venue_zip": "",
   "is_official": "1",
     "id_obfuscated": "gpg5bt"
 },
 {
   "name": "Printemps Climatique Vannes",
   "location": "Vannes, France",
   "url": "https://www.facebook.com/events/2258691551085505/",
   "latitude": "47.658236",
   "longitude": "-2.760847",
   "event_type_name": "FridaysForFuture",
   "start_time": "",
   "start_dt": "",
   "capacity": "",
   "id": "",
   "start_day": "2019-03-16",
   "venue_zip": "",
   "is_official": "1",
     "id_obfuscated": "gpg5bt"
 },
 {
   "name": "Printemps Climatique Tours ",
   "location": "Tours , France",
   "url": "https://www.facebook.com/events/392328084877060/?notif_t=plan_user_joined&notif_id=1550314492314123",
   "latitude": "47.394144",
   "longitude": "0.68484",
   "event_type_name": "FridaysForFuture",
   "start_time": "",
   "start_dt": "",
   "capacity": "",
   "id": "",
   "start_day": "2019-03-16",
   "venue_zip": "",
   "is_official": "1",
     "id_obfuscated": "gpg5bt"
 },
 {
   "name": "Printemps Climatique Rouen",
   "location": "Rouen, France",
   "url": "https://www.facebook.com/events/2184852025177254/",
   "latitude": "49.4432319999999",
   "longitude": "1.099971",
   "event_type_name": "FridaysForFuture",
   "start_time": "",
   "start_dt": "",
   "capacity": "",
   "id": "",
   "start_day": "2019-03-16",
   "venue_zip": "",
   "is_official": "1",
     "id_obfuscated": "gpg5bt"
 },
 {
   "name": "Printemps Climatique Arles",
   "location": "Arles, France",
   "url": "https://www.facebook.com/groups/Arlespourleclimat/",
   "latitude": "43.676647",
   "longitude": "4.6277769",
   "event_type_name": "FridaysForFuture",
   "start_time": "",
   "start_dt": "",
   "capacity": "",
   "id": "",
   "start_day": "2019-03-16",
   "venue_zip": "",
   "is_official": "1",
     "id_obfuscated": "gpg5bt"
 },
 {
   "name": "Printemps Climatique Paris",
   "location": "Paris, France",
   "url": "https://www.facebook.com/events/341502876439226/",
   "latitude": "48.856614",
   "longitude": "2.3522219",
   "event_type_name": "FridaysForFuture",
   "start_time": "",
   "start_dt": "",
   "capacity": "",
   "id": "",
   "start_day": "2019-03-16",
   "venue_zip": "",
   "is_official": "1",
     "id_obfuscated": "gpg5bt"
 },
 {
   "name": "Printemps Climatique Amiens",
   "location": "Amiens, France",
   "url": "https://www.facebook.com/events/562420780901064",
   "latitude": "49.894067",
   "longitude": "2.295753",
   "event_type_name": "FridaysForFuture",
   "start_time": "",
   "start_dt": "",
   "capacity": "",
   "id": "",
   "start_day": "2019-03-15",
   "venue_zip": "",
   "is_official": "1",
     "id_obfuscated": "gpg5bt"
 },
 {
   "name": "Printemps Climatique Charleville-Mézières",
   "location": "Charleville-Mézières, France",
   "url": "https://www.facebook.com/events/2281707112103943/",
   "latitude": "49.762085",
   "longitude": "4.726096",
   "event_type_name": "FridaysForFuture",
   "start_time": "",
   "start_dt": "",
   "capacity": "",
   "id": "",
   "start_day": "2019-03-16",
   "venue_zip": "",
   "is_official": "1",
     "id_obfuscated": "gpg5bt"
 },
 {
   "name": "Printemps Climatique Avignon",
   "location": "Avignon, France",
   "url": "https://www.facebook.com/events/1192776400876606/",
   "latitude": "43.949317",
   "longitude": "4.805528",
   "event_type_name": "FridaysForFuture",
   "start_time": "",
   "start_dt": "",
   "capacity": "",
   "id": "",
   "start_day": "2019-03-16",
   "venue_zip": "",
   "is_official": "1",
     "id_obfuscated": "gpg5bt"
 },
 {
   "name": "Printemps Climatique Saint-Lô",
   "location": "Saint-Lô, France",
   "url": "https://www.facebook.com/events/253829538873772/",
   "latitude": "49.1154686",
   "longitude": "-1.0828136",
   "event_type_name": "FridaysForFuture",
   "start_time": "",
   "start_dt": "",
   "capacity": "",
   "id": "",
   "start_day": "2019-03-16",
   "venue_zip": "",
   "is_official": "1",
     "id_obfuscated": "gpg5bt"
 },
 {
   "name": "Printemps Climatique Saint Andre De Cubzac",
   "location": "Saint Andre De Cubzac, France",
   "url": "https://www.facebook.com/events/378946336228305/",
   "latitude": "44.99456",
   "longitude": "-0.445865",
   "event_type_name": "FridaysForFuture",
   "start_time": "",
   "start_dt": "",
   "capacity": "",
   "id": "",
   "start_day": "2019-03-16",
   "venue_zip": "",
   "is_official": "1",
     "id_obfuscated": "gpg5bt"
 },
 {
   "name": "Printemps Climatique Reims",
   "location": "Reims, France",
   "url": "https://www.facebook.com/events/1016093445246479/?ti=cl",
   "latitude": "49.258329",
   "longitude": "4.031696",
   "event_type_name": "FridaysForFuture",
   "start_time": "",
   "start_dt": "",
   "capacity": "",
   "id": "",
   "start_day": "2019-03-16",
   "venue_zip": "",
   "is_official": "1",
     "id_obfuscated": "gpg5bt"
 },
 {
   "name": "Printemps Climatique Limoges",
   "location": "Limoges, France",
   "url": "https://www.facebook.com/events/2274122846206205/",
   "latitude": "45.833619",
   "longitude": "1.261105",
   "event_type_name": "FridaysForFuture",
   "start_time": "",
   "start_dt": "",
   "capacity": "",
   "id": "",
   "start_day": "2019-03-16",
   "venue_zip": "",
   "is_official": "1",
     "id_obfuscated": "gpg5bt"
 },
 {
   "name": "Printemps Climatique Saint Malo",
   "location": "Saint Malo, France",
   "url": "https://www.facebook.com/events/682185778845161/",
   "latitude": "48.649337",
   "longitude": "-2.025674",
   "event_type_name": "FridaysForFuture",
   "start_time": "",
   "start_dt": "",
   "capacity": "",
   "id": "",
   "start_day": "2019-03-16",
   "venue_zip": "",
   "is_official": "1",
     "id_obfuscated": "gpg5bt"
 },
 {
   "name": "Printemps Climatique Saint Malo",
   "location": "Saint Malo, France",
   "url": "https://www.facebook.com/events/682185778845161/",
   "latitude": "48.649337",
   "longitude": "-2.025674",
   "event_type_name": "FridaysForFuture",
   "start_time": "",
   "start_dt": "",
   "capacity": "",
   "id": "",
   "start_day": "2019-03-15",
   "venue_zip": "",
   "is_official": "1",
     "id_obfuscated": "gpg5bt"
 },
 {
   "name": "Printemps Climatique Saint Malo",
   "location": "Saint Malo, France",
   "url": "https://www.facebook.com/events/401317160645547/",
   "latitude": "48.649337",
   "longitude": "-2.025674",
   "event_type_name": "FridaysForFuture",
   "start_time": "",
   "start_dt": "",
   "capacity": "",
   "id": "",
   "start_day": "2019-03-19",
   "venue_zip": "",
   "is_official": "1",
     "id_obfuscated": "gpg5bt"
 },
 {
   "name": "Printemps Climatique Nîmes",
   "location": "Nîmes, France",
   "url": "https://www.facebook.com/events/1047727405428891/",
   "latitude": "43.836699",
   "longitude": "4.360054",
   "event_type_name": "FridaysForFuture",
   "start_time": "",
   "start_dt": "",
   "capacity": "",
   "id": "",
   "start_day": "2019-03-16",
   "venue_zip": "",
   "is_official": "1",
     "id_obfuscated": "gpg5bt"
 },
 {
   "name": "Printemps Climatique Brest",
   "location": "Brest, France",
   "url": "https://www.facebook.com/events/634798613600042/",
   "latitude": "48.390394",
   "longitude": "-4.486076",
   "event_type_name": "FridaysForFuture",
   "start_time": "",
   "start_dt": "",
   "capacity": "",
   "id": "",
   "start_day": "2019-03-16",
   "venue_zip": "",
   "is_official": "1",
     "id_obfuscated": "gpg5bt"
 },
 {
   "name": "Printemps Climatique Troyes",
   "location": "Troyes, France",
   "url": "https://www.facebook.com/events/639728586482505/",
   "latitude": "48.2973451",
   "longitude": "4.0744009",
   "event_type_name": "FridaysForFuture",
   "start_time": "",
   "start_dt": "",
   "capacity": "",
   "id": "",
   "start_day": "2019-03-16",
   "venue_zip": "",
   "is_official": "1",
     "id_obfuscated": "gpg5bt"
 },
 {
   "name": "Printemps Climatique Saint-Denis",
   "location": "Saint-Denis, Île De La Réunion",
   "url": "https://www.facebook.com/events/285593328790317/",
   "latitude": "48.936181",
   "longitude": "2.357443",
   "event_type_name": "FridaysForFuture",
   "start_time": "",
   "start_dt": "",
   "capacity": "",
   "id": "",
   "start_day": "2019-03-16",
   "venue_zip": "",
   "is_official": "1",
     "id_obfuscated": "gpg5bt"
 },
 {
   "name": "Printemps Climatique Moulins",
   "location": "Moulins, France",
   "url": "https://www.facebook.com/events/2026093877460526/permalink/2026106797459234/?notif_t=feedback_reaction_generic&notif_id=1550928908445646",
   "latitude": "46.568059",
   "longitude": "3.334417",
   "event_type_name": "FridaysForFuture",
   "start_time": "",
   "start_dt": "",
   "capacity": "",
   "id": "",
   "start_day": "2019-03-16",
   "venue_zip": "",
   "is_official": "1",
     "id_obfuscated": "gpg5bt"
 },
 {
   "name": "Printemps Climatique Pointe À Pitre",
   "location": "Pointe À Pitre, France (Guadeloupe)",
   "url": "https://www.facebook.com/events/573481419836291/?ti=cl",
   "latitude": "16.2376869",
   "longitude": "-61.5340424",
   "event_type_name": "FridaysForFuture",
   "start_time": "",
   "start_dt": "",
   "capacity": "",
   "id": "",
   "start_day": "2019-03-03",
   "venue_zip": "",
   "is_official": "1",
     "id_obfuscated": "gpg5bt"
 },
 {
   "name": "Printemps Climatique Le Mans",
   "location": "Le Mans, France",
   "url": "https://www.facebook.com/events/427118837829332/",
   "latitude": "48.00611",
   "longitude": "0.199556",
   "event_type_name": "FridaysForFuture",
   "start_time": "",
   "start_dt": "",
   "capacity": "",
   "id": "",
   "start_day": "2019-03-16",
   "venue_zip": "",
   "is_official": "1",
     "id_obfuscated": "gpg5bt"
 },
 {
   "name": "Printemps Climatique Angoulême",
   "location": "Angoulême, France",
   "url": "https://www.facebook.com/events/275331923163098/?ti=cl",
   "latitude": "45.648377",
   "longitude": "0.1562369",
   "event_type_name": "FridaysForFuture",
   "start_time": "",
   "start_dt": "",
   "capacity": "",
   "id": "",
   "start_day": "2019-03-16",
   "venue_zip": "",
   "is_official": "1",
     "id_obfuscated": "gpg5bt"
 },
 {
   "name": "Printemps Climatique Blois",
   "location": "Blois, France",
   "url": "https://www.facebook.com/events/231635297648119/",
   "latitude": "47.5860920999999",
   "longitude": "1.3359475",
   "event_type_name": "FridaysForFuture",
   "start_time": "",
   "start_dt": "",
   "capacity": "",
   "id": "",
   "start_day": "2019-03-16",
   "venue_zip": "",
   "is_official": "1",
     "id_obfuscated": "gpg5bt"
 },
 {
   "name": "Printemps Climatique Blois",
   "location": "Blois, France",
   "url": "https://www.facebook.com/events/356185608441819/",
   "latitude": "47.5860920999999",
   "longitude": "1.3359475",
   "event_type_name": "FridaysForFuture",
   "start_time": "",
   "start_dt": "",
   "capacity": "",
   "id": "",
   "start_day": "2019-03-15",
   "venue_zip": "",
   "is_official": "1",
     "id_obfuscated": "gpg5bt"
 },
 {
   "name": "Printemps Climatique Dax",
   "location": "Dax, France",
   "url": "https://www.facebook.com/events/1855555471221710/",
   "latitude": "25.85059",
   "longitude": "-80.320987",
   "event_type_name": "FridaysForFuture",
   "start_time": "",
   "start_dt": "",
   "capacity": "",
   "id": "",
   "start_day": "2019-03-16",
   "venue_zip": "",
   "is_official": "1",
     "id_obfuscated": "gpg5bt"
 },
 {
   "name": "Printemps Climatique Grasse",
   "location": "Grasse, France",
   "url": "https://www.facebook.com/events/335314247192168/?ti=cl",
   "latitude": "43.660153",
   "longitude": "6.926492",
   "event_type_name": "FridaysForFuture",
   "start_time": "",
   "start_dt": "",
   "capacity": "",
   "id": "",
   "start_day": "2019-03-16",
   "venue_zip": "",
   "is_official": "1",
     "id_obfuscated": "gpg5bt"
 },
 {
   "name": "Printemps Climatique Seattle",
   "location": "Seattle, Usa",
   "url": "https://www.facebook.com/ClimateStrikeWa/",
   "latitude": "47.6062095",
   "longitude": "-122.3320708",
   "event_type_name": "FridaysForFuture",
   "start_time": "",
   "start_dt": "",
   "capacity": "",
   "id": "",
   "start_day": "2019-03-15",
   "venue_zip": "",
   "is_official": "1",
     "id_obfuscated": "gpg5bt"
 },
 {
   "name": "Printemps Climatique Pau",
   "location": "Pau, France ",
   "url": "https://www.facebook.com/events/811114442581064/?ti=cl",
   "latitude": "43.2951",
   "longitude": "-0.370797",
   "event_type_name": "FridaysForFuture",
   "start_time": "",
   "start_dt": "",
   "capacity": "",
   "id": "",
   "start_day": "2019-03-16",
   "venue_zip": "",
   "is_official": "1",
     "id_obfuscated": "gpg5bt"
 },
 {
   "name": "Printemps Climatique Chambéry",
   "location": "Chambéry, France",
   "url": "https://www.facebook.com/events/321587275228538/",
   "latitude": "45.564601",
   "longitude": "5.917781",
   "event_type_name": "FridaysForFuture",
   "start_time": "",
   "start_dt": "",
   "capacity": "",
   "id": "",
   "start_day": "2019-03-16",
   "venue_zip": "",
   "is_official": "1",
     "id_obfuscated": "gpg5bt"
 },
 {
   "name": "Printemps Climatique Mende",
   "location": "Mende, France",
   "url": "https://www.facebook.com/events/758736934485320/",
   "latitude": "44.517611",
   "longitude": "3.501873",
   "event_type_name": "FridaysForFuture",
   "start_time": "",
   "start_dt": "",
   "capacity": "",
   "id": "",
   "start_day": "2019-03-16",
   "venue_zip": "",
   "is_official": "1",
     "id_obfuscated": "gpg5bt"
 },
 {
   "name": "Printemps Climatique Toulon",
   "location": "Toulon, France",
   "url": "https://www.facebook.com/events/385255818965684/",
   "latitude": "43.124228",
   "longitude": "5.928",
   "event_type_name": "FridaysForFuture",
   "start_time": "",
   "start_dt": "",
   "capacity": "",
   "id": "",
   "start_day": "2019-03-16",
   "venue_zip": "",
   "is_official": "1",
     "id_obfuscated": "gpg5bt"
 },
 {
   "name": "Printemps Climatique Montbrison",
   "location": "Montbrison, France",
   "url": "https://www.facebook.com/events/841024532903123/",
   "latitude": "45.60745",
   "longitude": "4.063338",
   "event_type_name": "FridaysForFuture",
   "start_time": "",
   "start_dt": "",
   "capacity": "",
   "id": "",
   "start_day": "2019-03-16",
   "venue_zip": "",
   "is_official": "1",
     "id_obfuscated": "gpg5bt"
 },
 {
   "name": "Printemps Climatique Roanne",
   "location": "Roanne, France",
   "url": "https://www.facebook.com/events/584357125325275/",
   "latitude": "46.034432",
   "longitude": "4.072695",
   "event_type_name": "FridaysForFuture",
   "start_time": "",
   "start_dt": "",
   "capacity": "",
   "id": "",
   "start_day": "2019-03-16",
   "venue_zip": "",
   "is_official": "1",
     "id_obfuscated": "gpg5bt"
 },
 {
   "name": "Printemps Climatique Landivisiau",
   "location": "Landivisiau, France",
   "url": "https://www.facebook.com/events/2275498266072978",
   "latitude": "48.510131",
   "longitude": "-4.073265",
   "event_type_name": "FridaysForFuture",
   "start_time": "",
   "start_dt": "",
   "capacity": "",
   "id": "",
   "start_day": "2019-03-16",
   "venue_zip": "",
   "is_official": "1",
     "id_obfuscated": "gpg5bt"
 },
 {
   "name": "Printemps Climatique Rodez",
   "location": "Rodez, France",
   "url": "https://www.facebook.com/events/2435796083161146/",
   "latitude": "44.349389",
   "longitude": "2.575986",
   "event_type_name": "FridaysForFuture",
   "start_time": "",
   "start_dt": "",
   "capacity": "",
   "id": "",
   "start_day": "2019-03-16",
   "venue_zip": "",
   "is_official": "1",
     "id_obfuscated": "gpg5bt"
 },
 {
   "name": "Printemps Climatique Paris ",
   "location": "Paris , France",
   "url": "https://www.facebook.com/events/256685741932218/",
   "latitude": "48.856614",
   "longitude": "2.3522219",
   "event_type_name": "FridaysForFuture",
   "start_time": "",
   "start_dt": "",
   "capacity": "",
   "id": "",
   "start_day": "2019-03-16",
   "venue_zip": "",
   "is_official": "1",
     "id_obfuscated": "gpg5bt"
 },
 {
   "name": "Printemps Climatique Bergerac",
   "location": "Bergerac, France",
   "url": "https://www.facebook.com/events/263407184580540/",
   "latitude": "37.7714444",
   "longitude": "-122.4137329",
   "event_type_name": "FridaysForFuture",
   "start_time": "",
   "start_dt": "",
   "capacity": "",
   "id": "",
   "start_day": "2019-03-16",
   "venue_zip": "",
   "is_official": "1",
     "id_obfuscated": "gpg5bt"
 },
 {
   "name": "Printemps Climatique Marseille",
   "location": "Marseille, France",
   "url": "https://www.facebook.com/events/247254289376883/?notif_t=plan_user_associated&notif_id=1551077859802362",
   "latitude": "43.296482",
   "longitude": "5.36978",
   "event_type_name": "FridaysForFuture",
   "start_time": "",
   "start_dt": "",
   "capacity": "",
   "id": "",
   "start_day": "2019-03-17",
   "venue_zip": "",
   "is_official": "1",
     "id_obfuscated": "gpg5bt"
 },
 {
   "name": "Printemps Climatique Chartres",
   "location": "Chartres, France",
   "url": "https://www.facebook.com/events/534025637105625/",
   "latitude": "48.4438539999999",
   "longitude": "1.489012",
   "event_type_name": "FridaysForFuture",
   "start_time": "",
   "start_dt": "",
   "capacity": "",
   "id": "",
   "start_day": "2019-03-16",
   "venue_zip": "",
   "is_official": "1",
     "id_obfuscated": "gpg5bt"
 },
 {
   "name": "Printemps Climatique Strasbourg",
   "location": "Strasbourg, France",
   "url": "https://www.facebook.com/events/304146263622302/",
   "latitude": "48.5734053",
   "longitude": "7.75211129999999",
   "event_type_name": "FridaysForFuture",
   "start_time": "",
   "start_dt": "",
   "capacity": "",
   "id": "",
   "start_day": "2019-03-16",
   "venue_zip": "",
   "is_official": "1",
     "id_obfuscated": "gpg5bt"
 },
 {
   "name": "Printemps Climatique Nice",
   "location": "Nice, France",
   "url": "https://www.facebook.com/events/278831876356269/?ti=cl",
   "latitude": "39.1232253",
   "longitude": "-122.848327",
   "event_type_name": "FridaysForFuture",
   "start_time": "",
   "start_dt": "",
   "capacity": "",
   "id": "",
   "start_day": "2019-03-16",
   "venue_zip": "",
   "is_official": "1",
     "id_obfuscated": "gpg5bt"
 },
 {
   "name": "Printemps Climatique Bruxelles",
   "location": "Bruxelles, Belgique",
   "url": "https://www.facebook.com/events/1597552237054984/?active_tab=about",
   "latitude": "50.8503396",
   "longitude": "4.3517103",
   "event_type_name": "FridaysForFuture",
   "start_time": "",
   "start_dt": "",
   "capacity": "",
   "id": "",
   "start_day": "2019-03-15",
   "venue_zip": "",
   "is_official": "1",
     "id_obfuscated": "gpg5bt"
 },
 {
   "name": "Printemps Climatique Chalon-Sur-Saône",
   "location": "Chalon-Sur-Saône, France",
   "url": "https://www.facebook.com/events/2257860597785546/",
   "latitude": "46.780764",
   "longitude": "4.853947",
   "event_type_name": "FridaysForFuture",
   "start_time": "",
   "start_dt": "",
   "capacity": "",
   "id": "",
   "start_day": "2019-03-15",
   "venue_zip": "",
   "is_official": "1",
     "id_obfuscated": "gpg5bt"
 },
 {
   "name": "Printemps Climatique La Roche-Sur-Yon",
   "location": "La Roche-Sur-Yon, France",
   "url": "https://www.facebook.com/events/254101208846876/?ti=as",
   "latitude": "46.670511",
   "longitude": "-1.426442",
   "event_type_name": "FridaysForFuture",
   "start_time": "",
   "start_dt": "",
   "capacity": "",
   "id": "",
   "start_day": "2019-03-15",
   "venue_zip": "",
   "is_official": "1",
     "id_obfuscated": "gpg5bt"
 },
 {
   "name": "Printemps Climatique Thonon Les Bains",
   "location": "Thonon Les Bains, France ",
   "url": "https://www.facebook.com/events/313349119534368/?ti=cl",
   "latitude": "46.373565",
   "longitude": "6.47763499999999",
   "event_type_name": "FridaysForFuture",
   "start_time": "",
   "start_dt": "",
   "capacity": "",
   "id": "",
   "start_day": "2019-03-16",
   "venue_zip": "",
   "is_official": "1",
     "id_obfuscated": "gpg5bt"
 },
 {
   "name": "Printemps Climatique Villemagne",
   "location": "Villemagne, France",
   "url": "https://www.facebook.com/events/324655294844285/?active_tab=about",
   "latitude": "43.358175",
   "longitude": "2.110986",
   "event_type_name": "FridaysForFuture",
   "start_time": "",
   "start_dt": "",
   "capacity": "",
   "id": "",
   "start_day": "2019-03-16",
   "venue_zip": "",
   "is_official": "1",
     "id_obfuscated": "gpg5bt"
 },
 {
   "name": "Printemps Climatique La Rochelle",
   "location": "La Rochelle, France",
   "url": "https://www.facebook.com/events/942674859453847/",
   "latitude": "46.160329",
   "longitude": "-1.151139",
   "event_type_name": "FridaysForFuture",
   "start_time": "",
   "start_dt": "",
   "capacity": "",
   "id": "",
   "start_day": "2019-03-15",
   "venue_zip": "",
   "is_official": "1",
     "id_obfuscated": "gpg5bt"
 },
 {
   "name": "Printemps Climatique La Rochelle",
   "location": "La Rochelle, France",
   "url": "https://www.facebook.com/events/1498890246913140/",
   "latitude": "46.160329",
   "longitude": "-1.151139",
   "event_type_name": "FridaysForFuture",
   "start_time": "",
   "start_dt": "",
   "capacity": "",
   "id": "",
   "start_day": "2019-03-16",
   "venue_zip": "",
   "is_official": "1",
     "id_obfuscated": "gpg5bt"
 },
 {
   "name": "Printemps Climatique Paris",
   "location": "Paris, France",
   "url": "https://www.facebook.com/events/313029476022232/",
   "latitude": "48.856614",
   "longitude": "2.3522219",
   "event_type_name": "FridaysForFuture",
   "start_time": "",
   "start_dt": "",
   "capacity": "",
   "id": "",
   "start_day": "2019-03-15",
   "venue_zip": "",
   "is_official": "1",
     "id_obfuscated": "gpg5bt"
 },
 {
   "name": "Printemps Climatique Concarneau",
   "location": "Concarneau, France",
   "url": "https://www.facebook.com/events/589321121535656/",
   "latitude": "47.872834",
   "longitude": "-3.920734",
   "event_type_name": "FridaysForFuture",
   "start_time": "",
   "start_dt": "",
   "capacity": "",
   "id": "",
   "start_day": "2019-03-16",
   "venue_zip": "",
   "is_official": "1",
     "id_obfuscated": "gpg5bt"
 },
 {
   "name": "Printemps Climatique Vence",
   "location": "Vence, France",
   "url": "https://www.facebook.com/events/582326875583136/",
   "latitude": "43.7223216",
   "longitude": "7.11170329999999",
   "event_type_name": "FridaysForFuture",
   "start_time": "",
   "start_dt": "",
   "capacity": "",
   "id": "",
   "start_day": "2019-03-17",
   "venue_zip": "",
   "is_official": "1",
     "id_obfuscated": "gpg5bt"
 },
 {
   "name": "Printemps Climatique Châteauroux",
   "location": "Châteauroux, France",
   "url": "https://www.facebook.com/events/248523402756766/",
   "latitude": "46.811434",
   "longitude": "1.686779",
   "event_type_name": "FridaysForFuture",
   "start_time": "",
   "start_dt": "",
   "capacity": "",
   "id": "",
   "start_day": "2019-03-16",
   "venue_zip": "",
   "is_official": "1",
     "id_obfuscated": "gpg5bt"
 },
 {
   "name": "Printemps Climatique Plusieurs Villes En Guadeloupe",
   "location": "Plusieurs Villes En Guadeloupe, Guadeloupe",
   "url": "https://www.facebook.com/events/406977923401183/",
   "latitude": "16.265",
   "longitude": "-61.5509999999999",
   "event_type_name": "FridaysForFuture",
   "start_time": "",
   "start_dt": "",
   "capacity": "",
   "id": "",
   "start_day": "2019-03-15",
   "venue_zip": "",
   "is_official": "1",
     "id_obfuscated": "gpg5bt"
 },
 {
   "name": "Printemps Climatique Chambéry",
   "location": "Chambéry, France",
   "url": "https://www.facebook.com/events/321587275228538/",
   "latitude": "45.564601",
   "longitude": "5.917781",
   "event_type_name": "FridaysForFuture",
   "start_time": "",
   "start_dt": "",
   "capacity": "",
   "id": "",
   "start_day": "2019-03-16",
   "venue_zip": "",
   "is_official": "1",
     "id_obfuscated": "gpg5bt"
 },
 {
   "name": "Printemps Climatique Chambéry",
   "location": "Chambéry, France",
   "url": "https://www.facebook.com/events/321587275228538/",
   "latitude": "45.564601",
   "longitude": "5.917781",
   "event_type_name": "FridaysForFuture",
   "start_time": "",
   "start_dt": "",
   "capacity": "",
   "id": "",
   "start_day": "2019-03-16",
   "venue_zip": "",
   "is_official": "1",
     "id_obfuscated": "gpg5bt"
 },
 {
   "name": "Printemps Climatique Compiègne",
   "location": "Compiègne, France",
   "url": "https://www.facebook.com/events/557786774728268/",
   "latitude": "49.4178159999999",
   "longitude": "2.826145",
   "event_type_name": "FridaysForFuture",
   "start_time": "",
   "start_dt": "",
   "capacity": "",
   "id": "",
   "start_day": "2019-03-16",
   "venue_zip": "",
   "is_official": "1",
     "id_obfuscated": "gpg5bt"
 },
 {
   "name": "Printemps Climatique Cholet",
   "location": "Cholet, France",
   "url": "https://www.facebook.com/events/394220564571747/",
   "latitude": "47.059407",
   "longitude": "-0.879787",
   "event_type_name": "FridaysForFuture",
   "start_time": "",
   "start_dt": "",
   "capacity": "",
   "id": "",
   "start_day": "2019-03-16",
   "venue_zip": "",
   "is_official": "1",
     "id_obfuscated": "gpg5bt"
 },
 {
   "name": "Printemps Climatique Rennes",
   "location": "Rennes, Bretagne",
   "url": "https://www.facebook.com/events/412657406207960/",
   "latitude": "48.117266",
   "longitude": "-1.6777926",
   "event_type_name": "FridaysForFuture",
   "start_time": "",
   "start_dt": "",
   "capacity": "",
   "id": "",
   "start_day": "2019-03-16",
   "venue_zip": "",
   "is_official": "1",
     "id_obfuscated": "gpg5bt"
 },
 {
   "name": "Printemps Climatique Arles",
   "location": "Arles, France",
   "url": "https://www.facebook.com/events/349096969149392/",
   "latitude": "43.676647",
   "longitude": "4.6277769",
   "event_type_name": "FridaysForFuture",
   "start_time": "",
   "start_dt": "",
   "capacity": "",
   "id": "",
   "start_day": "2019-03-16",
   "venue_zip": "",
   "is_official": "1",
     "id_obfuscated": "gpg5bt"
 },
 {
   "name": "Printemps Climatique Clermont-Ferrand",
   "location": "Clermont-Ferrand, France",
   "url": "https://www.facebook.com/events/1209994995836414/",
   "latitude": "45.7772219999999",
   "longitude": "3.087025",
   "event_type_name": "FridaysForFuture",
   "start_time": "",
   "start_dt": "",
   "capacity": "",
   "id": "",
   "start_day": "2019-03-16",
   "venue_zip": "",
   "is_official": "1",
     "id_obfuscated": "gpg5bt"
 },
 {
   "name": "Printemps Climatique Clermont-Ferrand",
   "location": "Clermont-Ferrand, France",
   "url": "https://www.facebook.com/events/381935479022570/",
   "latitude": "45.7772219999999",
   "longitude": "3.087025",
   "event_type_name": "FridaysForFuture",
   "start_time": "",
   "start_dt": "",
   "capacity": "",
   "id": "",
   "start_day": "2019-03-15",
   "venue_zip": "",
   "is_official": "1",
     "id_obfuscated": "gpg5bt"
 },
 {
   "name": "Printemps Climatique Tarbes",
   "location": "Tarbes, France",
   "url": "https://www.facebook.com/events/403221720488705/",
   "latitude": "43.232951",
   "longitude": "0.078082",
   "event_type_name": "FridaysForFuture",
   "start_time": "",
   "start_dt": "",
   "capacity": "",
   "id": "",
   "start_day": "2019-03-15",
   "venue_zip": "",
   "is_official": "1",
     "id_obfuscated": "gpg5bt"
 },
 {
   "name": "Printemps Climatique Lorient",
   "location": "Lorient, France",
   "url": "https://www.facebook.com/events/318434255526083/?ti=cl",
   "latitude": "47.7482524",
   "longitude": "-3.3702449",
   "event_type_name": "FridaysForFuture",
   "start_time": "",
   "start_dt": "",
   "capacity": "",
   "id": "",
   "start_day": "2019-03-15",
   "venue_zip": "",
   "is_official": "1",
     "id_obfuscated": "gpg5bt"
 },

          /*Plantons des arbres*/

    
        {
         "longitude":"2.3488",
         "url":"https://www.facebook.com/groups/612493462486704/",
        "event_type_name":"trees",
         "start_time":"11:00:00",
         "start_dt":"2018-11-24 11:00:00",
         "name":"Plantons des arbres",
         "location":"Près de chez vous",
         "capacity":"0",
         "id":"230901",
         "start_day":"2018-11-24",
         "venue_zip":"",
         "latitude":"48.8534",
         "is_official":"1",
         "id_obfuscated":"gpg5bt"
      },
      

      {
         "longitude":"3.8772",
         "url":"https://www.facebook.com/groups/612493462486704/",
        "event_type_name":"trees",
         "start_time":"15:00:00",
         "start_dt":"2018-11-24 15:00:00",
         "name":"Plantons des arbres",
         "location":"Montpellier, France",
         "capacity":"0",
         "id":"130964",
         "start_day":"2018-11-24",
         "venue_zip":"",
         "latitude":"43.6109",
         "is_official":"1",
         "id_obfuscated":"gpg5bt"
      },

      {
         "longitude":"4.1802",
         "url":"https://www.facebook.com/groups/612493462486704/",
        "event_type_name":"trees",
         "start_time":"15:00:00",
         "start_dt":"2018-11-25 15:00:00",
         "name":"Plantons des arbres",
         "location":"Aigues Vives, France",
         "capacity":"0",
         "id":"130964",
         "start_day":"2018-11-25",
         "venue_zip":"",
         "latitude":"43.7389",
         "is_official":"1",
         "id_obfuscated":"gpg5bt"
      },

      {
         "longitude":"3.7364",
         "url":"https://www.facebook.com/groups/612493462486704/",
        "event_type_name":"trees",
         "start_time":"15:00:00",
         "start_dt":"2018-11-24 15:00:00",
         "name":"Plantons des arbres",
         "location":"Murviel lès Montpellier, France",
         "capacity":"0",
         "id":"130964",
         "start_day":"2018-11-24",
         "venue_zip":"",
         "latitude":"43.6044",
         "is_official":"1",
         "id_obfuscated":"gpg5bt"
      },
      {
         "longitude":"-0.7822",
         "url":"https://www.facebook.com/groups/612493462486704/",
        "event_type_name":"trees",
         "start_time":"15:00:00",
         "start_dt":"2018-11-24 15:00:00",
         "name":"Plantons des arbres",
         "location":"Saint Jean d'Illac, France",
         "capacity":"0",
         "id":"130964",
         "start_day":"2018-11-24",
         "venue_zip":"",
         "latitude":"44.8112",
         "is_official":"1",
         "id_obfuscated":"gpg5bt"
      },
      {
         "longitude":"-0.0536",
         "url":"https://www.facebook.com/groups/612493462486704/",
        "event_type_name":"trees",
         "start_time":"15:00:00",
         "start_dt":"2018-11-24 15:00:00",
         "name":"Plantons des arbres",
         "location":"St Jouin de Marne, France",
         "capacity":"0",
         "id":"130964",
         "start_day":"2018-11-24",
         "venue_zip":"",
         "latitude":"46.8821",
         "is_official":"1",
         "id_obfuscated":"gpg5bt"
      },
      {
         "longitude":"3.0265",
         "url":"https://www.facebook.com/groups/612493462486704/",
        "event_type_name":"trees",
         "start_time":"15:00:00",
         "start_dt":"2018-11-24 15:00:00",
         "name":"Plantons des arbres",
         "location":"Seclin, France",
         "capacity":"0",
         "id":"130964",
         "start_day":"2018-11-24",
         "venue_zip":"",
         "latitude":"50.5453",
         "is_official":"1",
         "id_obfuscated":"gpg5bt"
      },
      {
         "longitude":"3.8964",
         "url":"https://www.facebook.com/groups/612493462486704/",
        "event_type_name":"trees",
         "start_time":"15:00:00",
         "start_dt":"2018-11-24 15:00:00",
         "name":"Plantons des arbres",
         "location":"Lattes, France",
         "capacity":"0",
         "id":"130964",
         "start_day":"2018-11-24",
         "venue_zip":"",
         "latitude":"43.5672",
         "is_official":"1",
         "id_obfuscated":"gpg5bt"
      },
      {
         "longitude":"4.1915",
         "url":"https://www.facebook.com/groups/612493462486704/",
        "event_type_name":"trees",
         "start_time":"15:00:00",
         "start_dt":"2018-11-24 15:00:00",
         "name":"Plantons des arbres",
         "location":"Calvisson, France",
         "capacity":"0",
         "id":"130964",
         "start_day":"2018-11-24",
         "venue_zip":"",
         "latitude":"43.7851",
         "is_official":"1",
         "id_obfuscated":"gpg5bt"
      },
      {
         "longitude":"4.3601",
         "url":"https://www.facebook.com/groups/612493462486704/",
        "event_type_name":"trees",
         "start_time":"15:00:00",
         "start_dt":"2018-11-24 15:00:00",
         "name":"Plantons des arbres",
         "location":"Nimes, France",
         "capacity":"0",
         "id":"130964",
         "start_day":"2018-11-24",
         "venue_zip":"",
         "latitude":"43.8367",
         "is_official":"1",
         "id_obfuscated":"gpg5bt"
      },
      {
         "longitude":"3.8879",
         "url":"https://www.facebook.com/groups/612493462486704/",
        "event_type_name":"trees",
         "start_time":"15:00:00",
         "start_dt":"2018-11-24 15:00:00",
         "name":"Plantons des arbres",
         "location":"Clapiers, France",
         "capacity":"0",
         "id":"130964",
         "start_day":"2018-11-24",
         "venue_zip":"",
         "latitude":"43.6572",
         "is_official":"1",
         "id_obfuscated":"gpg5bt"
      },
      {
         "longitude":"-3.4277",
         "url":"https://www.facebook.com/groups/612493462486704/",
        "event_type_name":"trees",
         "start_time":"15:00:00",
         "start_dt":"2018-11-24 15:00:00",
         "name":"Plantons des arbres",
         "location":"Callac, France",
         "capacity":"0",
         "id":"130964",
         "start_day":"2018-11-24",
         "venue_zip":"",
         "latitude":"48.4043",
         "is_official":"1",
         "id_obfuscated":"gpg5bt"
      },
      {
         "longitude":"2.9581",
         "url":"https://www.facebook.com/groups/612493462486704/",
        "event_type_name":"trees",
         "start_time":"15:00:00",
         "start_dt":"2018-11-24 15:00:00",
         "name":"Plantons des arbres",
         "location":"Carvin, France",
         "capacity":"0",
         "id":"130964",
         "start_day":"2018-11-24",
         "venue_zip":"",
         "latitude":"50.4915",
         "is_official":"1",
         "id_obfuscated":"gpg5bt"
      },
      {
         "longitude":"6.2754",
         "url":"https://www.facebook.com/groups/612493462486704/",
        "event_type_name":"trees",
         "start_time":"15:00:00",
         "start_dt":"2018-11-24 15:00:00",
         "name":"Plantons des arbres",
         "location":"Villecrose, France",
         "capacity":"0",
         "id":"130964",
         "start_day":"2018-11-24",
         "venue_zip":"",
         "latitude":"43.5820",
         "is_official":"1",
         "id_obfuscated":"gpg5bt"
      },

      {
         "longitude":"2.46306",
         "url":"https://www.facebook.com/groups/612493462486704/",
        "event_type_name":"trees",
         "start_time":"15:00:00",
         "start_dt":"2018-11-24 15:00:00",
         "name":"Plantons des arbres",
         "location":"Coye la Forêt, France",
         "capacity":"0",
         "id":"130964",
         "start_day":"2018-11-24",
         "venue_zip":"",
         "latitude":"49.147297",
         "is_official":"1",
         "id_obfuscated":"gpg5bt"
      },
      {
         "longitude":"1.485533",
         "url":"https://www.facebook.com/groups/612493462486704/",
        "event_type_name":"trees",
         "start_time":"15:00:00",
         "start_dt":"2018-11-24 15:00:00",
         "name":"Plantons des arbres",
         "location":"Serville et plaine du Drouet, France",
         "capacity":"0",
         "id":"130964",
         "start_day":"2018-11-24",
         "venue_zip":"",
         "latitude":"48.766936",
         "is_official":"1",
         "id_obfuscated":"gpg5bt"
      },
   
	   
	



            /*Pétitions clic*/ 
               /*Réhabilitons les métiers de l’herboristerie*/

       {
         "longitude":"2.3488",
         "url":"https://www.mesopinions.com/petition/politique/rehabilitons-metiers-herboristerie/49691",
        "event_type_name":"petition",
         "start_time":"11:00:00",
         "start_dt":"2018-12-08 11:00:00",
         "name":"Réhabilitons les métiers de l’herboristerie",
         "location":"Non déterminé",
         "capacity":"0",
         "id":"230901",
         "start_day":"",
         "venue_zip":"",
         "latitude":"48.8534",
         "is_official":"1",
         "id_obfuscated":"gpg5bt"
      },
      {
         "longitude":"5.4497",  
         "url":"https://www.mesopinions.com/petition/politique/rehabilitons-metiers-herboristerie/49691",
        "event_type_name":"petition",
         "start_time":"14:00:00",
         "start_dt":"2019-01-31 14:00:00",
         "name":"Réhabilitons les métiers de l’herboristerie",
         "location":"Aix-en-Provence, France",
         "capacity":"0",
         "id":"230978",
         "start_day":"",
         "venue_zip":"",
         "latitude":"43.5283",
         "is_official":"1",
         "id_obfuscated":"gpg5bt"
      },
      {
         "longitude":"2.1486413",  
         "url":"https://www.mesopinions.com/petition/politique/rehabilitons-metiers-herboristerie/49691",
        "event_type_name":"petition",
         "start_time":"14:00:00",
         "start_dt":"2019-01-31 14:00:00",
         "name":"Réhabilitons les métiers de l’herboristerie",
         "location":"Albi, France",
         "capacity":"0",
         "id":"230902",
         "start_day":"",
         "venue_zip":"",
         "latitude":"43.9250853",
         "is_official":"1",
         "id_obfuscated":"gpg5bt"
      },
       {
         "longitude":"2.3",
         "url":"https://www.mesopinions.com/petition/politique/rehabilitons-metiers-herboristerie/49691",
        "event_type_name":"petition",
         "start_time":"15:00:00",
         "start_dt":"2018-12-08 15:00:00",
         "name":"Réhabilitons les métiers de l’herboristerie",
         "location":"Amiens, France",
         "capacity":"0",
         "id":"230911",
         "start_day":"",
         "venue_zip":"",
         "latitude":"49.9",
         "is_official":"1",
         "id_obfuscated":"gpg5bt"
      },
      {
         "longitude":"-0.55",
         "url":"https://www.mesopinions.com/petition/politique/rehabilitons-metiers-herboristerie/49691",
        "event_type_name":"petition",
         "start_time":"15:00:00",
         "start_dt":"2018-12-08 15:00:00",
         "name":"Réhabilitons les métiers de l’herboristerie",
         "location":"Angers, France",
         "capacity":"0",
         "id":"230912",
         "start_day":"",
         "venue_zip":"",
         "latitude":"47.4667",
         "is_official":"1",
         "id_obfuscated":"gpg5bt"
      },
     {
         "longitude":"0.15",
         "url":"https://www.mesopinions.com/petition/politique/rehabilitons-metiers-herboristerie/49691",
        "event_type_name":"petition",
         "start_time":"14:00:00",
         "start_dt":"2019-01-31 14:00:00",
         "name":"Réhabilitons les métiers de l’herboristerie",
         "location":"Angoulême, France",
         "capacity":"0",
         "id":"230959",
         "start_day":"",
         "venue_zip":"",
         "latitude":"45.65",
         "is_official":"1",
         "id_obfuscated":"gpg5bt"
      }, 
     {
         "longitude":"2.25",
         "url":"https://www.mesopinions.com/petition/politique/rehabilitons-metiers-herboristerie/49691",
        "event_type_name":"petition",
         "start_time":"14:00:00",
         "start_dt":"2019-01-31 14:00:00",
         "name":"Réhabilitons les métiers de l’herboristerie",
         "location":"Argenteuil, France",
         "capacity":"0",
         "id":"230923",
         "start_day":"",
         "venue_zip":"",
         "latitude":"48.944",
         "is_official":"1",
         "id_obfuscated":"gpg5bt"
      },